"nodeID","nodeLabel","longitud","latitud","mode","year"
1,"Santa Fe - Carlos Jáuregui",-58.3989075634122,-34.6358418393779,"heavy_rail",2016
2,"Matheu",-58.4467196357067,-34.5925995208596,"commuter_rail",1898
3,"Maquista Savio",-58.4177257903409,-34.6494765063442,"commuter_rail",1960
4,"Garín",-58.2845520707034,-34.7523428799879,"commuter_rail",1892
5,"López Camelo",-58.8298155791279,-34.382805076452,"commuter_rail",1892
6,"El Talar",-58.772075237896,-34.4068488867455,"commuter_rail",1892
7,"Dr. Schweitzer",-58.7365985084175,-34.4216064313159,"commuter_rail",1892
8,"Solís",-58.6775223996979,-34.4468534249595,"commuter_rail",1894
9,"Maguirre",-58.6462462627403,-34.4626893095089,"commuter_rail",1894
10,"Fontezuela",-59.3207718674114,-34.2952020026337,"commuter_rail",1894
11,"Pergamino",-60.2962988022461,-33.9543591465177,"commuter_rail",1894
12,"Diego Gaynor",-60.4626542516202,-33.9142248411216,"commuter_rail",1900
13,"San Antonio de Areco",-60.5685699756272,-33.889360280453,"commuter_rail",1894
14,"Duggan",-58.5743613111505,-34.4720484246591,"commuter_rail",1894
15,"Vagués",-59.2250649566657,-34.2869396278584,"commuter_rail",1881
16,"Capitán Sarmiento",-59.219761902319,-34.4867106414878,"commuter_rail",1894
17,"La Luisa",-59.4809218725694,-34.2579592680252,"commuter_rail",1894
18,"Viña",-59.634676036562,-34.2137248008543,"commuter_rail",1894
19,"Arrecifes",-59.4443198509082,-34.2994131739574,"commuter_rail",1894
20,"Todd",-59.7931905675394,-34.1754576827885,"commuter_rail",1894
21,"Urquiza",-59.9484620568297,-34.1308906145125,"commuter_rail",1894
22,"Carlos Keen",-60.2278972110478,-33.9932635491484,"commuter_rail",1881
23,"Azcuénaga",-60.0998949895411,-34.0614766394668,"commuter_rail",1881
24,"Kilómetro 0,72",-60.1562464471348,-34.0342566426645,"commuter_rail",1908
25,"José Ingenieros",-60.3899573576134,-33.9260670334688,"commuter_rail",1908
26,"Kilómetro 10,51",-59.3764842111385,-34.3652505269181,"commuter_rail",1911
27,"Liniers",-58.5354765721157,-34.6064353073039,"commuter_rail",1872
28,"Villa Real",-58.5358703352662,-34.6155478997482,"commuter_rail",1908
29,"Ingeniero Echagüe",-58.5139330533776,-34.6336158918092,"commuter_rail",1908
30,"Versailles",-58.5259143939144,-34.6388334827053,"commuter_rail",1911
31,"Kilómetro 11,10",-58.5265614284118,-34.6211906489074,"commuter_rail",1911
32,"Ingeniero Brian",-58.51862720425,-34.6270605266961,"commuter_rail",1873
33,"del Parque",-58.5243295947571,-34.6286833696098,"commuter_rail",1857
34,"Almagro",-58.5199506408482,-34.633178764061,"commuter_rail",1857
35,"Villa Luro",-58.5768752900485,-34.4184914382315,"commuter_rail",1911
36,"Ciudadela",-58.9529906067123,-34.608882829306,"commuter_rail",1910
37,"Ramos Mejía",-59.0875123368454,-34.5773833962927,"commuter_rail",1858
38,"Borges",-59.1051079752867,-34.5777572158616,"light_rail",1995
39,"Juan Anchorena",-58.3988792935975,-34.6583132146974,"light_rail",1995
40,"San Isidro R",-58.3825595570675,-34.6010747827347,"light_rail",1995
41,"Marina Nueva",-58.4213549300154,-34.6098174249642,"light_rail",1995
42,"Canal San Fernando",-58.5009352093392,-34.6360996561726,"light_rail",1995
43,"Avenida Maipú",-58.5410201746735,-34.639938716465,"light_rail",1995
44,"Libertador",-58.5643795383841,-34.6404783511854,"light_rail",1995
45,"Las Barrancas",-58.4847696086501,-34.5085010133766,"light_rail",1995
46,"Punta Chica",-58.4812305002671,-34.4891142930574,"light_rail",1995
47,"San Fernando R",-58.508691503752,-34.465198637724,"light_rail",1995
48,"Delta",-58.5389241074254,-34.444564575742,"light_rail",1995
49,"Delta",-58.5626925638128,-34.430096977346,"commuter_rail",1896
50,"Canal San Fernando",-58.4883393050909,-34.5139668818897,"commuter_rail",1893
51,"San Fernando",-58.4820358629121,-34.5023192255356,"commuter_rail",1892
52,"Punta Chica",-58.4928681965658,-34.4724366326138,"commuter_rail",1892
53,"San Isidro R",-58.5238523141795,-34.4504805740365,"commuter_rail",1891
54,"Las Barrancas",-58.5539310663328,-34.4375198469733,"commuter_rail",1893
55,"Juan Anchorena",-58.5768754543266,-34.4184913905713,"commuter_rail",1891
56,"Sargento Barrufaldi",-58.9980344302052,-34.5983632919846,"commuter_rail",1914
57,"Pedro Arata",-59.0569518114753,-34.5845714468664,"commuter_rail",1888
58,"Borges",-58.5626936742907,-34.4300977364042,"commuter_rail",1896
59,"Juan B. de La Salle",-58.5539311411658,-34.4375199253286,"commuter_rail",1914
60,"José Artigas",-58.456299890833,-34.6487158685453,"commuter_rail",1888
61,"Antonio Devoto",-58.5238530803187,-34.4504808175712,"commuter_rail",1888
62,"Ejército de los Andes",-58.5086903740324,-34.4652002326936,"commuter_rail",1914
63,"Rubén Darío",-58.492873983668,-34.4724448005875,"commuter_rail",1888
64,"Pablo Podestá",-58.4812287486071,-34.4891142507511,"commuter_rail",1888
65,"José María Bosch",-58.4759563789169,-34.592473809962,"commuter_rail",1888
66,"Tropezón",-58.4847696883163,-34.5085009372988,"commuter_rail",1888
67,"Lourdes",-58.4662918881379,-34.5901032244865,"commuter_rail",1888
68,"Coronel Lynch",-58.5105671288634,-34.5955980965649,"commuter_rail",1888
69,"Kilómetro 83",-58.6292695162475,-34.5875598343042,"commuter_rail",1876
70,"Ingeniero Otamendi",-58.6070959635486,-34.5883810354343,"commuter_rail",1876
71,"Doctor Francisco Beiró",-58.5719603676272,-34.5899993946449,"commuter_rail",1888
72,"Jorge Newbery",-58.5594558238192,-34.5918925837334,"commuter_rail",1888
73,"Fernández Moreno",-58.5469877317621,-34.593782310699,"commuter_rail",1888
74,"El Libertador",-58.5243629873168,-34.5972150743317,"commuter_rail",1888
75,"Martín Coronado",-58.9772996426142,-34.1602643869236,"commuter_rail",1888
76,"Zárate",-58.8966130025319,-34.2218304671095,"commuter_rail",1876
77,"Campana",-58.6597952447525,-34.5627515761614,"commuter_rail",1876
78,"Río Luján",-58.4939843082072,-34.5931155684711,"commuter_rail",1876
79,"Ingeniero Maschwitz",-58.62060563403,-34.5878728031644,"commuter_rail",1876
80,"General Pacheco",-58.5354364215516,-34.5955333686976,"commuter_rail",1876
81,"Escobar",-58.5033694688261,-34.5945052550045,"commuter_rail",1877
82,"Benavídez",-58.5907894775217,-34.5889676419197,"commuter_rail",1876
83,"Bancalari",-59.0380323495631,-34.0975461818748,"commuter_rail",1876
84,"20 de Julio",-58.9585515688854,-34.1567501489085,"commuter_rail",1892
85,"Dique Luján",-58.8902270729983,-34.2779614746733,"commuter_rail",1914
86,"Plaza de los Virreyes - Eva Perón",-58.7363425046043,-34.3829657745293,"heavy_rail",1986
87,"Intendente Saguier",-58.6201354586397,-34.4558150742211,"tram",1987
88,"Agronomía",-58.7950853511847,-34.3495737914766,"commuter_rail",1888
89,"Mariano Acosta",-58.6846315346081,-34.4092627649876,"tram",1987
90,"Cecilia Grierson",-58.6028896561877,-34.4797046877019,"tram",1987
91,"Ana María Janer",-58.6127476108727,-34.4742242501379,"tram",1987
92,"Fernández de la Cruz",-58.4916772445762,-34.6838985994516,"tram",1987
93,"Centro Cívico",-58.6876269651755,-34.3516287812528,"tram",1987
94,"Presidente Illia",-58.4158994248354,-34.6490904914795,"tram",1987
95,"Escalada",-58.4618523244104,-34.6430628834893,"tram",1987
96,"Ana Díaz",-58.4565471564678,-34.6543797438476,"tram",1987
97,"Gabino Ezeiza",-58.4499123427094,-34.6595905723338,"tram",1987
98,"Larrazábal",-58.4576945605163,-34.6723272060713,"tram",1987
99,"Chivilcoy",-58.4600509513345,-34.6744537109286,"commuter_rail",1888
100,"Kilómetro 9",-58.483175264222,-34.5926584924701,"commuter_rail",1888
101,"Teniente Balmaceda",-58.4653246093651,-34.680599375391,"commuter_rail",1914
102,"Teniente Perugorria",-58.4582369612746,-34.6858618985433,"commuter_rail",1914
103,"Balbastro",-58.4668070973245,-34.6805145094116,"tram",1987
104,"Somellera",-58.4651025008939,-34.6835677341493,"tram",1987
105,"Nuestra Señora de Fátima",-58.5152311104689,-34.5963099248398,"tram",2000
106,"Presidente Illia",-58.552597422967,-34.5929219877244,"tram",1987
107,"Parque de la Ciudad",-58.684040955339,-34.5450511766586,"tram",1987
108,"Pola",-58.6532550459712,-34.567530692471,"tram",2006
109,"Nicolás Descalzi",-58.4409204149192,-34.6622308426746,"tram",1987
110,"Lisandro de la Torre",-58.4537827108346,-34.656535804072,"commuter_rail",1916
111,"General Savio",-58.4542633270308,-34.66901849769,"tram",1987
112,"Florida",-58.4644344163065,-34.6780909164785,"heavy_rail",1931
113,"Tigre",-58.4623619925848,-34.6828276634249,"commuter_rail",1996
114,"Retiro",-58.3751180877538,-34.6033254176232,"commuter_rail",1915
115,"Villa Crespo",-58.4609353648235,-34.6897155224675,"commuter_rail",1930
116,"Villa del Parque",-58.5817127530346,-34.4235126860314,"commuter_rail",1907
117,"Palermo",-58.3751449365571,-34.5910451196987,"commuter_rail",1888
118,"Sáenz Peña",-58.7316058308923,-34.7090806864856,"commuter_rail",1907
119,"Devoto",-58.494050935517,-34.6014000064086,"commuter_rail",1889
120,"Hurlingham",-58.5127831103852,-34.6026774308495,"commuter_rail",1893
121,"Bella Vista",-58.4263908319293,-34.5783859321379,"commuter_rail",1891
122,"José C. Paz",-58.5279415075616,-34.6031964981465,"commuter_rail",1906
123,"Caseros",-58.6324066063122,-34.5910531248185,"commuter_rail",1888
124,"Retiro",-58.684692383599,-34.5637914024387,"commuter_rail",1912
125,"Sol y Verde",-58.7502875065971,-34.5190639586205,"commuter_rail",2009
126,"La Paternal",-58.5644872208682,-34.6045728428943,"commuter_rail",1888
127,"Central de Buenos Aires",-58.3732392070582,-34.5893133248624,"commuter_rail",1872
128,"Villa Astolfi",-58.7977074174536,-34.5039844617717,"commuter_rail",1950
129,"Santos Lugares",-58.8769581030683,-34.4786659063295,"commuter_rail",1906
130,"El Palomar",-58.5408063128971,-34.6036853770825,"commuter_rail",1908
131,"Manzanares",-58.5961362742002,-34.6049299994879,"commuter_rail",1895
132,"William Morris",-59.0073171613129,-34.4525255185312,"commuter_rail",1958
133,"San Miguel",-58.6563403377109,-34.5785966833139,"commuter_rail",1896
134,"Dr. Domingo Cabred",-58.7134504930447,-34.544056513817,"commuter_rail",2014
135,"Muñiz",-59.0758966153669,-34.4879354300086,"commuter_rail",1888
136,"Presidente Derqui",-58.7035849422365,-34.551164491818,"commuter_rail",1901
137,"Pilar",-58.3698347810253,-34.6064516060733,"commuter_rail",1888
138,"Manzanares",-58.8393512139255,-34.4907025923768,"commuter_rail",2014
139,"Dr. Domingo Cabred",-58.9082589518968,-34.4686892399815,"commuter_rail",1900
140,"Tres Cruces",-59.0073116053161,-34.4525321734717,"commuter_rail",1888
141,"Avenida América",-58.6467877382372,-34.7716608232738,"commuter_rail",1908
142,"Pereyra",-59.0758955940536,-34.4879363315969,"commuter_rail",1888
143,"Carosella",-58.4906687271903,-34.5928631398946,"commuter_rail",1914
144,"Sargento Cabral",-58.5191036137973,-34.5968891242493,"commuter_rail",1974
145,"Campo de Mayo",-58.511662401327,-34.7024188057087,"commuter_rail",1914
146,"Teniente Agneta",-58.6812944635802,-34.5470486852522,"commuter_rail",1914
147,"Federico Lacroze",-58.524365669586,-34.7124184554407,"commuter_rail",1888
148,"Capitán Lozano",-58.5371486864021,-34.7107926471638,"commuter_rail",1914
149,"Belgrano C",-58.5074558274991,-34.6901229850458,"commuter_rail",1862
150,"Corrientes",-58.6361974141747,-34.5872361556129,"tram",2007
151,"General Lemos",-58.5144026262588,-34.7107730872972,"commuter_rail",1974
152,"Retiro",-58.551917020461,-34.7089902069701,"commuter_rail",1862
153,"Córdoba",-58.4770218352323,-34.6772076729642,"tram",2007
154,"Belgrano",-58.5875221649039,-34.704545205594,"tram",2007
155,"Independencia",-58.6262825210102,-34.6997013135676,"tram",2007
156,"Tigre C",-58.6475533629636,-34.6970351051627,"commuter_rail",1865
157,"Virreyes",-58.4488998956944,-34.6655719730091,"commuter_rail",1938
158,"Beccar",-58.5357409007944,-34.5852693338583,"commuter_rail",1933
159,"Acassuso",-58.6017130060415,-34.7564022992504,"commuter_rail",1933
160,"La Lucila",-58.5845196744334,-34.7508232915667,"commuter_rail",1933
161,"Rivadavia",-58.5308919876482,-34.5898645524184,"commuter_rail",1863
162,"Recoleta",-58.6864900288475,-34.6921419799511,"commuter_rail",1862
163,"Las Heras",-59.1736293176953,-34.6006615885518,"heavy_rail",2015
164,"José María Moreno",-58.4928863518872,-34.6659523941972,"heavy_rail",1973
165,"Emilio Mitre",-58.3962942451699,-34.658511802007,"heavy_rail",1985
166,"Carupá",-58.5059656081042,-34.710272950083,"commuter_rail",1865
167,"San Fernando",-58.5305050584657,-34.7222874390993,"commuter_rail",1864
168,"Victoria",-58.615598955793,-34.7603372422225,"commuter_rail",1891
169,"San Isidro",-58.5326531944763,-34.580801230564,"commuter_rail",1864
170,"Martínez",-59.2554016688841,-34.6279464490135,"commuter_rail",1871
171,"Olivos",-59.3529992105968,-34.6478409378077,"commuter_rail",1864
172,"Vicente López",-59.0909857215718,-35.151617741785,"commuter_rail",1864
173,"Núñez",-59.0927597686264,-35.1847959318128,"commuter_rail",1873
174,"Palermo",-58.540477452948,-34.4564634239378,"commuter_rail",1862
175,"José León Suárez",-58.3899169376291,-34.646006619965,"commuter_rail",1932
176,"Villa Ballester",-59.4322410741576,-34.6576772365279,"commuter_rail",1895
177,"San Andrés",-59.042007424167,-35.058442987674,"commuter_rail",1876
178,"General Urquiza",-58.9996673737947,-35.0018395569271,"commuter_rail",1889
179,"Miguelete",-58.9445405115499,-34.9280257636456,"commuter_rail",1876
180,"Chilavert",-58.9178962393528,-34.892324526753,"commuter_rail",1876
181,"Malaver",-58.892218203443,-34.857899336904,"commuter_rail",1876
182,"San Martín",-58.8365810844168,-34.7830922609435,"commuter_rail",1876
183,"Dr. Luis María Drago",-58.7930233181127,-34.7243973035769,"commuter_rail",1933
184,"Pueyrredón",-58.4762933604264,-34.7183372702669,"commuter_rail",1876
185,"Belgrano R",-58.7794146011199,-34.7060563885676,"commuter_rail",1876
186,"Ministro Carranza",-58.7601939800178,-34.6801141162945,"commuter_rail",1876
187,"Luis María Saavedra",-58.6863914070848,-34.5433403609629,"commuter_rail",1891
188,"Florida",-58.6784496441586,-34.5491192700196,"commuter_rail",1891
189,"Colegiales",-58.6693809660343,-34.5556434757445,"commuter_rail",1898
190,"3 de Febrero",-58.6451626065349,-34.5736404251295,"commuter_rail",1915
191,"Coghlan",-58.6403479824491,-34.5801784566967,"commuter_rail",1891
192,"Juan B. Justo",-58.6955274217088,-34.5367704714183,"commuter_rail",1931
193,"Dr. Cetrángolo",-58.4556594278142,-34.5867685922151,"commuter_rail",1951
194,"Bartolomé Mitre",-58.3673676541327,-34.602570491013,"commuter_rail",1891
195,"Retiro",-58.4494453061318,-34.5585069028998,"commuter_rail",1912
196,"Dr. A. Sáenz",-58.3754401502312,-34.5921495127512,"commuter_rail",1908
197,"Dr. A. Sáenz (Provisoria)",-58.3682279980778,-34.5984774465247,"commuter_rail",2018
198,"Once de Septiembre",-58.3664025887238,-34.6114535589662,"commuter_rail",1857
199,"Flores",-58.3659809718973,-34.6165716151889,"commuter_rail",1857
200,"Floresta",-58.488582791984,-34.4975023720752,"commuter_rail",1857
201,"Darío Santillán y Maximiliano Kosteki",-58.579867877898,-34.4214041010126,"commuter_rail",1865
202,"Caballito",-58.5514900930702,-34.4500818273852,"commuter_rail",1857
203,"Morón",-58.5263684764955,-34.4609167196925,"commuter_rail",1859
204,"Buenos Aires",-58.5038612320631,-34.4799663835166,"commuter_rail",1911
205,"Castelar",-58.4681787929528,-34.5361765615842,"commuter_rail",1913
206,"Lanús",-58.3883369320357,-34.5820439913615,"commuter_rail",1868
207,"Ituzaingó",-58.3972416800727,-34.5874921775375,"commuter_rail",1872
208,"San Antonio de Padua",-58.4941331595576,-34.5231554632981,"commuter_rail",1923
209,"Remedios de Escalada",-58.5684061884448,-34.4367530992523,"commuter_rail",1868
210,"Merlo",-58.5586495833894,-34.4443227455541,"commuter_rail",1860
211,"Paso del Rey",-58.5409185132929,-34.4561753593149,"commuter_rail",1938
212,"Moreno",-58.5139363731312,-34.4716291326955,"commuter_rail",1860
213,"Banfield",-58.4971855813694,-34.4879898423424,"commuter_rail",1873
214,"Plaza Constitución",-58.4803395900503,-34.5084101603165,"commuter_rail",1865
215,"Hipólito Yrigoyen",-58.4731378893637,-34.5240267651812,"commuter_rail",1866
216,"Haedo",-58.4626873693392,-34.5485920038733,"commuter_rail",1886
217,"Lomas de Zamora",-58.4200203281311,-34.5662887422219,"commuter_rail",1865
218,"Temperley",-58.5767212509049,-34.5341792081467,"commuter_rail",1871
219,"Tierras Altas",-58.5559964200768,-34.5510330128871,"commuter_rail",1988
220,"Del Viso",-58.5406102254112,-34.5636083926983,"commuter_rail",1909
221,"Pablo Nogués",-58.4878385484442,-34.5747223884032,"commuter_rail",1909
222,"Vicealmirante Montes",-58.5161983315016,-34.5812066280674,"commuter_rail",1909
223,"Villa de Mayo",-58.5669259873272,-34.5421899964612,"commuter_rail",1913
224,"Don Torcuato",-58.547853459816,-34.5574398370798,"commuter_rail",1909
225,"Villa Adelina",-58.5317096321111,-34.5736166136707,"commuter_rail",1909
226,"Munro",-58.478940978859,-34.568398903112,"commuter_rail",1912
227,"Carlos Pellegrini",-58.5017444472824,-34.5804903688973,"heavy_rail",1931
228,"Diagonal Norte",-58.4624486680204,-34.5678258090974,"heavy_rail",1934
229,"Avenida de Mayo",-58.4344075684593,-34.575463282453,"heavy_rail",1934
230,"Moreno",-58.4870240652031,-34.554113120333,"heavy_rail",1934
231,"Congreso - Presidente Dr. Raúl Alfonsín",-58.494407341162,-34.5295151911518,"heavy_rail",1913
232,"Independencia",-58.4481815416491,-34.5730279586036,"heavy_rail",1934
233,"Inclán - Mezquita Al Ahmad",-58.4251886535763,-34.5718664600226,"heavy_rail",2007
234,"Humberto 1º",-58.4751193665287,-34.5653303894641,"heavy_rail",2007
235,"Venezuela",-58.494706160692,-34.5423194768541,"heavy_rail",2007
236,"Once - 30 de Diciembre",-58.4890677379764,-34.5148303745478,"heavy_rail",2007
237,"9 de Julio",-58.3740910149639,-34.5901054719963,"heavy_rail",1937
238,"Facultad de Medicina",-58.7008396945882,-34.5329279048957,"heavy_rail",1938
239,"Tribunales - Teatro Colón",-58.828546870001,-34.6397102595098,"heavy_rail",1937
240,"Agüero",-58.8552700511387,-34.6322428201707,"heavy_rail",1938
241,"Scalabrini Ortiz",-58.418136781579,-34.6489672740909,"heavy_rail",1938
242,"Plaza Italia",-58.4074589179778,-34.6084421094127,"heavy_rail",1938
243,"Palermo",-58.4656757746228,-34.6277296588676,"heavy_rail",1940
244,"Retiro",-58.4814045173181,-34.6325372596519,"heavy_rail",1936
245,"Lavalle",-58.3789108558522,-34.6536037187819,"heavy_rail",1936
246,"Constitución",-58.4436045518117,-34.6191655270522,"heavy_rail",1934
247,"Uruguay",-58.6194113801265,-34.6482407988201,"heavy_rail",1931
248,"Callao - Maestro Alfredo Bravo",-58.6419876109037,-34.6519895755549,"heavy_rail",1930
249,"Pasteur - AMIA",-58.6665748058772,-34.6597443583056,"heavy_rail",1930
250,"Carlos Gardel",-58.3912097375047,-34.6443889992671,"heavy_rail",1930
251,"Medrano - Almagro",-58.6986487103976,-34.66553857509,"heavy_rail",1930
252,"Ángel Gallardo",-58.7277710967386,-34.6645344930791,"heavy_rail",1930
253,"Malabia - Osvaldo Pugliese",-58.762100564759,-34.6582261436864,"heavy_rail",1930
254,"Dorrego",-58.7898430042428,-34.650513666228,"heavy_rail",1930
255,"Perú",-58.5920221619468,-34.644591823341,"heavy_rail",1913
256,"Piedras",-58.8933611163811,-34.6227714251305,"heavy_rail",1913
257,"Lima",-58.3806262448501,-34.6288330680935,"heavy_rail",1913
258,"Sáenz Peña",-58.3962851987109,-34.7760390534998,"heavy_rail",1913
259,"Pasco",-58.3972928818835,-34.761045766025,"heavy_rail",1913
260,"Alberti",-58.9217287596234,-34.6161717668706,"heavy_rail",1913
261,"Plaza Miserere",-58.7400854926527,-34.4787114558927,"heavy_rail",1913
262,"Loria",-58.7968074673309,-34.4533772011664,"heavy_rail",1914
263,"Castro Barros",-58.7063628796481,-34.4937449859319,"heavy_rail",1914
264,"Río de Janeiro",-58.6200282761423,-34.5041300387655,"heavy_rail",1914
265,"Acoyte",-58.6806823439971,-34.5033725669085,"heavy_rail",1914
266,"Primera Junta",-58.6418411630571,-34.5026928278158,"heavy_rail",1914
267,"Bolívar",-58.5462188636974,-34.5236809820697,"heavy_rail",1966
268,"Belgrano",-58.524314375415,-34.531442798929,"heavy_rail",1966
269,"Independencia",-58.3809826294026,-34.6036834215129,"heavy_rail",1966
270,"San José",-58.4047236477971,-34.6152434591369,"heavy_rail",1944
271,"Entre Ríos - Rodolfo Walsh",-58.3977474636334,-34.599765808744,"heavy_rail",1944
272,"Pichincha",-58.4071215157808,-34.5916582453228,"heavy_rail",1944
273,"Jujuy",-58.4159294185265,-34.5851602586019,"heavy_rail",1944
274,"Urquiza",-58.3740565523433,-34.5912513575864,"heavy_rail",1944
275,"Bulnes",-58.4258362590347,-34.5783453942574,"heavy_rail",1938
276,"Pueyrredón",-58.3795309667425,-34.604848665387,"heavy_rail",1938
277,"Callao",-58.3806457406757,-34.6089792697014,"heavy_rail",1938
278,"General San Martín",-58.3804926519794,-34.612568109822,"heavy_rail",1937
279,"Medalla Milagrosa",-58.3802356562158,-34.6181221947598,"heavy_rail",1985
280,"Avenida La Plata",-58.3852109950914,-34.6015583257659,"heavy_rail",1966
281,"Boedo",-58.3805743445213,-34.6042452037712,"heavy_rail",1960
282,"Ministro Carranza - Miguel Abuelo",-58.3781557831942,-34.601769923798,"heavy_rail",1993
283,"Olleros",-58.3872961341576,-34.604093553428,"heavy_rail",1997
284,"José Hernández",-58.3814456241783,-34.6276230497228,"heavy_rail",1997
285,"Juramento",-58.4350054427645,-34.5751720773436,"heavy_rail",1999
286,"Federico Lacroze",-58.4117626011356,-34.6040795184799,"heavy_rail",1930
287,"Varela",-58.4312738604315,-34.6021622306381,"heavy_rail",1985
288,"Catedral",-58.4397151920098,-34.5990030261253,"heavy_rail",1937
289,"Plaza de Mayo - Casa Rosada",-58.4474784161237,-34.5917726438988,"heavy_rail",1913
290,"Congreso de Tucumán",-58.3742677265724,-34.6085590738884,"heavy_rail",2000
291,"De los Incas -  Parque Chas",-58.3970597879912,-34.6095511367424,"heavy_rail",2003
292,"Carabobo",-58.3758434602121,-34.5924346730826,"heavy_rail",2008
293,"Puán",-58.3738431630259,-34.6078296882033,"heavy_rail",2008
294,"Corrientes",-58.4551967582187,-34.5871909600777,"heavy_rail",2010
295,"Parque Patricios",-58.4744194794342,-34.5811637234293,"heavy_rail",2011
296,"Hospitales",-58.3699927044301,-34.6030066266179,"heavy_rail",2013
297,"San Pedrito",-58.3929672366309,-34.599666693573,"heavy_rail",2013
298,"San José de Flores",-58.4023582387102,-34.5944725155267,"heavy_rail",2013
299,"Apeadero Carranza",-58.4112925612344,-34.5882361437017,"heavy_rail",1987
300,"Constitución",-58.40374500152,-34.5985047294007,"heavy_rail",1944
301,"Apeadero Boedo",-58.4346529037013,-34.5753376813164,"heavy_rail",1944
302,"Retiro",-58.392525467937,-34.5853531778846,"heavy_rail",2019
303,"Catalinas",-58.444761075379,-34.5700351541388,"heavy_rail",2019
304,"Correo Central",-58.4053639713074,-34.6045878548497,"heavy_rail",2019
305,"Plaza Francia",-58.4662569269921,-34.5841299662941,"heavy_rail",NA
306,"Córdoba",-58.4810168019616,-34.5777810860004,"heavy_rail",2015
307,"Leandro N. Alem",-58.4054134285705,-34.6044441192647,"heavy_rail",1931
308,"Pueyrredón",-58.3914915474224,-34.6227489752346,"heavy_rail",1930
309,"Tronador - Villa Ortúzar",-58.3735828358792,-34.6091509380448,"heavy_rail",2003
310,"Echeverría",-58.3791305242236,-34.6088799006399,"heavy_rail",2013
311,"Juan Manuel de Rosas - Villa Urquiza",-58.4522206487426,-34.5661386147308,"heavy_rail",2013
312,"San Juan",-58.4565036036709,-34.5622491585211,"heavy_rail",1934
313,"Caseros",-58.3821141096187,-34.6091120861844,"heavy_rail",2007
314,"Villa Soldati",-58.4068662281523,-34.6097828573348,"commuter_rail",1908
315,"Presidente Illia",-58.415394272653,-34.6108151293641,"commuter_rail",1908
316,"Villa Madero",-58.4217706888503,-34.6117959824167,"commuter_rail",1908
317,"Marinos del Fournier",-58.429307175292,-34.6151738869713,"commuter_rail",1908
318,"Tapiales",-58.4624199946681,-34.5556111975084,"commuter_rail",1908
319,"Aldo Bonzi",-58.3778090293219,-34.5950773614567,"commuter_rail",1909
320,"Mendeville",-58.4865682080087,-34.5741031512771,"commuter_rail",1909
321,"José Ingenieros",-58.4209624717517,-34.6031649022273,"commuter_rail",1909
322,"J. Villegas",-58.3994742577363,-34.6046429678427,"commuter_rail",1909
323,"Isidro Casanova",-58.405765592328,-34.6384058573638,"commuter_rail",1909
324,"Rafael Castillo",-58.4124493560609,-34.641130405781,"commuter_rail",1909
325,"Merlo Gómez",-58.377580327072,-34.6128683769473,"commuter_rail",1909
326,"Libertad",-58.3814991312003,-34.6179438735077,"commuter_rail",1909
327,"Marinos del Crucero General Belgrano",-58.3851423357711,-34.622337100242,"commuter_rail",1985
328,"Kilómetro 12",-58.3814504721883,-34.6276230548417,"commuter_rail",1909
329,"Ingeniero Budge",-58.379960487559,-34.6221246434037,"commuter_rail",1908
330,"Fiorito",-58.3971069857303,-34.623132757199,"commuter_rail",1908
331,"Villa Caraza",-58.4029156765612,-34.6238741226448,"commuter_rail",1909
332,"Villa Diamante",-58.4094006262524,-34.6246602282242,"commuter_rail",1909
333,"Puente Alsina",-58.4146342571782,-34.6252769845885,"commuter_rail",1908
334,"Ingeniero Castello",-58.4158768657277,-34.6254050947667,"commuter_rail",1908
335,"Querandí",-58.4267466119195,-34.6270128458956,"commuter_rail",1908
336,"Laferrere",-58.4337845681895,-34.6280105130688,"commuter_rail",1913
337,"Independencia",-58.4421263426959,-34.6310122078964,"commuter_rail",1981
338,"González Catán",-58.4502829658436,-34.6363910784057,"commuter_rail",1908
339,"Mataderos",-58.4580694065724,-34.639979811684,"commuter_rail",1908
340,"Riachuelo",-58.3927812622604,-34.6044640362732,"commuter_rail",1908
341,"La Salada",-58.3910056993576,-34.5829875364525,"commuter_rail",2014
342,"María Eva Duarte",-58.2458487762731,-34.7412292693652,"commuter_rail",1999
343,"Leopoldo Lugones",-58.3896649251137,-34.8394980495668,"commuter_rail",1911
344,"Roma",-58.3230527216884,-34.804469589089,"commuter_rail",1911
345,"San Martín",-58.8716377860887,-34.4165196695488,"commuter_rail",1911
346,"La Salada",-58.7750438124681,-34.4631089035375,"commuter_rail",1909
347,"Francisco Álvarez",-58.7579569701048,-34.4707358352025,"commuter_rail",1923
348,"Ingeniero Pablo Marín",-58.7251946139084,-34.4853483047726,"commuter_rail",1864
349,"Las Malvinas",-58.6947728530126,-34.4989166022358,"commuter_rail",1864
350,"General Rodríguez",-58.6664469500885,-34.5029951462315,"commuter_rail",1864
351,"La Fraternidad",-58.564858738663,-34.508964593651,"commuter_rail",1864
352,"Lezica y Torrezuri",-58.5377191303245,-34.5287577537122,"commuter_rail",1864
353,"Universidad de Luján",-58.5130719407167,-34.5371490351,"commuter_rail",1984
354,"Luján",-58.5006341416773,-34.5434566067409,"commuter_rail",1864
355,"Jáuregui",-58.446555035507,-34.5438041563882,"commuter_rail",1884
356,"Olivera",-58.4773077720972,-34.5372667144452,"commuter_rail",1864
357,"Gowland",-58.8694810405016,-34.370124230648,"commuter_rail",1888
358,"Mercedes",-58.3995870696196,-34.5754735475015,"commuter_rail",1864
359,"Lobos",-59.1024640311711,-34.2863364453751,"commuter_rail",1871
360,"Empalme Lobos",-58.9874868867229,-34.3308918496577,"commuter_rail",1871
361,"Zapiola",-57.9026872677851,-34.8623769294243,"commuter_rail",1871
362,"Speratti",-57.926414564579,-34.8501137049245,"commuter_rail",1871
363,"Las Heras",-57.9506230494153,-34.8335277124245,"commuter_rail",1871
364,"Hornos",-57.980918244016,-34.8145426383006,"commuter_rail",1884
365,"Zamudio",-58.3737505736121,-34.9810239924707,"commuter_rail",1871
366,"Marcos Paz",-58.4154012116064,-35.0314156168664,"commuter_rail",1870
367,"Mariano Acosta",-58.3640915777198,-34.6384237583667,"commuter_rail",1910
368,"Agustín Ferrari",-57.9680787400679,-34.8909861450058,"commuter_rail",1870
369,"Kilómetro 34,5",-58.3642796064937,-34.647814609368,"commuter_rail",1870
370,"Constitución",-58.3713196311261,-34.6512824419447,"commuter_rail",999999
371,"Buenos Aires",-58.3766490536507,-34.6620416848757,"commuter_rail",999999
372,"Gerli",-58.3451154631981,-34.6788394690873,"commuter_rail",1910
373,"Guernica",-58.3827473292679,-34.6860952050014,"commuter_rail",1888
374,"Alejandro Korn",-58.3906758882091,-34.7076438464571,"commuter_rail",1865
375,"San Vicente",-58.3936368876343,-34.7270539188695,"commuter_rail",1928
376,"General Brown",-58.3953445685658,-34.7431801864251,"commuter_rail",1865
377,"Barraca Peña",-58.3805780124831,-34.9179508462399,"commuter_rail",1865
378,"Tres Esquinas",-58.370569281431,-34.6600734352151,"commuter_rail",1865
379,"Barracas Iglesia",-57.949972578228,-34.9041607543767,"commuter_rail",1865
380,"Sarandí",-58.3942792423592,-34.797406230234,"commuter_rail",1872
381,"Tolosa",-58.3913940387484,-34.8250759667498,"commuter_rail",1883
382,"La Plata",-58.3872277176743,-34.859607088006,"commuter_rail",1906
383,"Ensenada",-58.3837860875228,-34.8883119950568,"commuter_rail",1872
384,"Remolcador Guaraní",-58.2904205335621,-35.0703486077303,"commuter_rail",1889
385,"Punta Lara",-58.231881270137,-35.1680117351327,"commuter_rail",1872
386,"Victoria",-58.1512512192124,-35.3610904555781,"commuter_rail",1892
387,"Adrogué",-57.9960578794889,-34.8816157636483,"commuter_rail",1872
388,"Burzaco",-58.094010779107,-35.4494488950749,"commuter_rail",1888
389,"Longchamps",-57.9824216489431,-35.57899825353,"commuter_rail",1910
390,"Glew",-58.1982197824545,-35.2776194060329,"commuter_rail",1865
391,"Donselaar",-58.369265769761,-34.6136383659099,"commuter_rail",1865
392,"Coronel Brandsen",-58.3679747581066,-34.6275729157778,"commuter_rail",1865
393,"Jeppener",-58.2341176211927,-34.7519145572439,"commuter_rail",1865
394,"Altamirano",-58.2087570306659,-34.7639796836353,"commuter_rail",1865
395,"Gándara",-58.1708331937568,-34.7823205687823,"commuter_rail",1865
396,"Chascomús",-58.1555262779312,-34.790996119197,"commuter_rail",1865
397,"Venezuela",-58.0750159488734,-34.8497036987425,"commuter_rail",1865
398,"Casa Amarilla",-58.1409636177745,-34.8440164767563,"commuter_rail",1865
399,"Ezpeleta",-58.0444818061637,-34.8645748253854,"commuter_rail",1889
400,"Berazategui",-58.0105565609497,-34.8799424707076,"commuter_rail",1872
401,"Plátanos",-57.9962422166663,-34.8814852089672,"commuter_rail",1872
402,"Hudson",-58.0946650701456,-34.8365598182806,"commuter_rail",1872
403,"Pereyra",-58.325423853217,-34.691478106846,"commuter_rail",1872
404,"Villa Elisa",-58.3111956130297,-34.6975679002187,"commuter_rail",1884
405,"Juan Vicetich",-58.2962687965852,-34.7033189706021,"commuter_rail",1884
406,"City Bell",-58.2804315427826,-34.7093587742899,"commuter_rail",1914
407,"Manuel B. Gonnet",-58.2608672012547,-34.7243921100352,"commuter_rail",1889
408,"Ringuelet",-58.0187193053681,-34.9070656544057,"commuter_rail",1886
409,"Ringuelet",-58.0524082368267,-34.9471076291603,"commuter_rail",1883
410,"Villa Domínico",-58.0915739000552,-34.9828296420171,"commuter_rail",1909
411,"Wilde",-58.1170300430347,-35.0062265004948,"commuter_rail",1888
412,"Don Bosco",-58.1663494489189,-35.0675216118489,"commuter_rail",1927
413,"Bernal",-58.2191938082044,-35.1340229175732,"commuter_rail",1878
414,"Quilmes",-58.469723887513,-34.8145028669594,"commuter_rail",1872
415,"José Hernández",-58.4485474650946,-34.80326496825,"commuter_rail",1883
416,"Melchor Romero",-58.4300912957657,-34.7971455766,"commuter_rail",1883
417,"Abasto",-58.4080657657264,-34.7951117599231,"commuter_rail",1883
418,"Kilómetro 65,635",-58.4939981580252,-34.6670854709114,"commuter_rail",1883
419,"Gómez",-58.4746623197255,-34.7333913311172,"commuter_rail",1883
420,"Kilómetro 82",-58.195270648196,-34.7750571142091,"commuter_rail",1883
421,"Monte Grande",-58.7544499216545,-35.059397495365,"commuter_rail",1913
422,"Luis Guillón",-58.7239689771433,-35.0217910143914,"commuter_rail",1885
423,"Lavallol",-58.6897989003012,-34.9864254644343,"commuter_rail",1885
424,"Turdera",-58.2567274671286,-34.8109976327065,"commuter_rail",1885
425,"Mataderos",-58.6746400373952,-34.9776492535802,"commuter_rail",1903
426,"Cañuelas",-58.6479292572225,-34.9622603954035,"commuter_rail",1885
427,"Dr. Ricardo Levene",-58.2304460944155,-34.8194787312759,"commuter_rail",1885
428,"Kloosterman",-58.6205859089345,-34.936378168126,"commuter_rail",1885
429,"Alejandro Petión",-58.5942789246796,-34.9099617209872,"commuter_rail",1885
430,"Vicente Casares",-58.5679030794988,-34.8893840489536,"commuter_rail",1885
431,"Máximo Paz",-58.505939045111,-34.7099299586461,"commuter_rail",1885
432,"Carlos Spegazzini",-58.5433967767177,-34.8702430763274,"commuter_rail",1885
433,"Tristán Suárez",-58.3025416626615,-34.8088893937681,"commuter_rail",1885
434,"Unión Ferroviaria",-58.5228174801653,-34.8541433762511,"commuter_rail",1885
435,"Ezeiza",-58.4962527615793,-34.8333372114021,"commuter_rail",1885
436,"El Jagüel",-58.2740978163027,-34.8111420454388,"commuter_rail",1965
437,"Juan María Gutiérrez",-58.5281626494034,-34.6929820746111,"commuter_rail",1883
438,"Santa Sofía",-58.3381118684187,-34.8012069564286,"commuter_rail",1883
439,"Bosques",-58.3590526774928,-34.7967180898037,"commuter_rail",1883
440,"Sourigues",-58.5556215444592,-34.6739959976198,"commuter_rail",1939
441,"Ranelagh",-58.2130761582649,-34.8071548112737,"commuter_rail",1911
442,"Villa España",-58.3812997663429,-34.7919082122686,"commuter_rail",1911
443,"Zeballos",-58.2032429101997,-34.7894243150242,"commuter_rail",1911
444,"Florencio Varela",-58.4075205821903,-34.7862173453073,"commuter_rail",1883
445,"Ingeniero Dante Ardigó",-58.4374947367437,-34.780217533177,"commuter_rail",1970
446,"Claypole",-58.3671960374794,-34.6051563959145,"commuter_rail",1883
447,"Rafael Calzada",-58.4441004119482,-34.7713878829551,"commuter_rail",1883
448,"José Mármol",-58.38678661144,-34.609424212785,"commuter_rail",1875
449,"Hospital Español",-58.4650477137857,-34.7434119982233,"commuter_rail",1940
450,"Santa Catalina",-58.4013433110289,-34.6098453812595,"commuter_rail",1875
451,"Juan XXIII",-58.5729016979381,-34.6581958875509,"commuter_rail",1932
452,"Kilómetro 34",-58.4363990472199,-34.6182969518064,"commuter_rail",1963
453,"Intendente Pedro P. Turner",-58.5918929518192,-34.645002156894,"commuter_rail",1971
454,"Agustín De Elía",-58.1856033767617,-34.8340192554196,"commuter_rail",1875
455,"La Tablada",-58.2134006615769,-34.8250092972173,"commuter_rail",1875
456,"San Justo",-58.4412953041721,-34.6204611547621,"commuter_rail",1886
457,"Ingeniero Santiago Brian",-58.4486263676812,-34.6235771251783,"commuter_rail",1886
458,"Haedo",-58.4566863296729,-34.6266598347502,"commuter_rail",1886
459,"1º de Marzo",-58.4635004471824,-34.6290799016008,"commuter_rail",1948
460,"Avellaneda",-58.4696321487388,-34.6307005443756,"commuter_rail",1926
461,"Belgrano C (Provisoria)",-58.3811065645115,-34.6306634903603,"commuter_rail",2018
462,"Ladines",-58.4367414481236,-34.5625384966342,"brt",2016
463,"Mosconi",-58.4440013655615,-34.5613291210917,"brt",2016
464,"Cubas",-58.4023025149597,-34.6230956071081,"brt",2016
465,"Solano López",-58.4009548047827,-34.6293752442746,"brt",2016
466,"Roffo",-58.4617708072449,-34.6431755083375,"brt",2016
467,"Comunicaciones",-58.4060287910671,-34.6089479261672,"brt",2016
468,"2 de Abril",-58.4023448583932,-34.5944571982015,"brt",2016
469,"Agronomía",-58.4212593936064,-34.5814849944582,"brt",2016
470,"Empedrado",-58.4487369686464,-34.6605361669801,"brt",2016
471,"Argentinos Juniors",-58.4465064358096,-34.662263122816,"brt",2016
472,"Donato Álvarez",-58.4488895720913,-34.6654468229596,"brt",2016
473,"Pappo Napolitano",-58.448833083502,-34.6652937125292,"brt",2016
474,"Santa Fe",-58.4300268692765,-34.5818591330469,"brt",2013
475,"Marcelo T. de Alvear",-58.4265883724527,-34.577603210015,"brt",2013
476,"Paraguay",-58.4347311448078,-34.5853606377887,"brt",2013
477,"Córdoba",-58.4406987634387,-34.5922655366666,"brt",2013
478,"Teatro Colón",-58.444300296056,-34.5947651826187,"brt",2013
479,"Obelisco Norte",-58.44766512281,-34.597108557602,"brt",2013
480,"Obelisco Sur",-58.4520367229304,-34.6001301620002,"brt",2013
481,"Juan D. Perón",-58.4584366257557,-34.6044868305926,"brt",2013
482,"Mitre",-58.4626921280585,-34.6073790533132,"brt",2013
483,"Yrigoyen",-58.4678659087397,-34.6113004699423,"brt",2013
484,"Alsina",-58.4722480937854,-34.613837568632,"brt",2013
485,"Belgrano",-58.4761092914705,-34.6180853226691,"brt",2013
486,"Venezuela",-58.4808227908979,-34.6220594402919,"brt",2013
487,"México",-58.4859433427867,-34.6251362871732,"brt",2013
488,"Chile",-58.4910963288512,-34.626980791456,"brt",2013
489,"Independencia",-58.4948450864221,-34.6295146746392,"brt",2013
490,"Estados Unidos",-58.500974874321,-34.6321681339842,"brt",2013
491,"Ricardo Rojas",-58.5067115938073,-34.6343239722079,"brt",2017
492,"Marcelo T. de Alvear",-58.5138172387839,-34.6334535270135,"brt",2017
493,"Paraguay",-58.5259087213415,-34.6382460957746,"brt",2017
494,"Av. Córdoba",-58.3725297596264,-34.5956436085121,"brt",2017
495,"Viamonte",-58.3720178442392,-34.5967194851136,"brt",2017
496,"Tucumán",-58.3919917234002,-34.6295525889598,"brt",2017
497,"Lavalle",-58.381254393729,-34.6098347093325,"brt",2017
498,"Av. Corrientes",-58.369394426762,-34.6117398199094,"brt",2017
499,"Sarmiento",-58.3713460185739,-34.5979898115385,"brt",2017
500,"Perón",-58.3811654413587,-34.6109599284548,"brt",2017
501,"Alsina",-58.4401427112839,-34.5724257378217,"brt",2017
502,"Moreno",-58.4279216729993,-34.577638744697,"brt",2017
503,"Av. Belgrano",-58.4292897224202,-34.5772589073953,"brt",2017
504,"México",-58.3709554123804,-34.5989766845098,"brt",2017
505,"Chile",-58.5153678857497,-34.5903920538441,"brt",2017
506,"Av. Independencia",-58.511025869033,-34.5916841709637,"brt",2017
507,"Constitución",-58.5073440987077,-34.593014635285,"brt",2013
508,"Combate de los Pozos",-58.4995531199114,-34.5959281234112,"brt",2013
509,"Entre Ríos",-58.4952278900213,-34.5969062072853,"brt",2013
510,"Garrahan",-58.491189902574,-34.5971770938952,"brt",2013
511,"Pichincha",-58.4868218645171,-34.5974662068302,"brt",2013
512,"Jujuy",-58.4831749975028,-34.5978036344235,"brt",2013
513,"Jujuy",-58.4807875300093,-34.5988370921372,"brt",2013
514,"La Rioja",-58.3818495291895,-34.5994057946585,"brt",2013
515,"La Rioja",-58.4702910889733,-34.6015560732641,"brt",2013
516,"Brasil",-58.4649233466393,-34.602845356982,"brt",2013
517,"Sánchez de Loria",-58.4592419761114,-34.604274434067,"brt",2013
518,"Bathurst",-58.3821702509729,-34.5955870252168,"brt",2013
519,"Boedo",-58.3820126867527,-34.5969949524819,"brt",2013
520,"",-58.3819074011537,-34.5981685528579,"brt",2013
521,"Caseros",-58.3817879865363,-34.6005453167226,"brt",2013
522,"Av. La Plata",-58.3817186612035,-34.6018838059875,"brt",2013
523,"José C. Paz",-58.3815405375295,-34.6052934611612,"brt",2013
524,"Grito de Asencio",-58.3814660355364,-34.6064939019105,"brt",2013
525,"Pompeya",-58.381399269527,-34.6076678232305,"brt",2013
526,"Sáenz",-58.3809281533598,-34.6276103106284,"brt",2013
527,"Vedia",-58.3810710583538,-34.6133960245679,"brt",2013
528,"Bonorino",-58.381006061835,-34.6145204307269,"brt",2013
529,"Berg",-58.3692388150848,-34.6142151718051,"brt",2013
530,"Varela",-58.3809827698033,-34.6154964721149,"brt",2013
531,"Lafuente",-58.3809318729128,-34.6167493725695,"brt",2013
532,"Mariano Acosta",-58.3808837316535,-34.6178744911944,"brt",2013
533,"Lacarra",-58.3691775283854,-34.6154024417252,"brt",2013
534,"Parque Roca",-58.3808413618458,-34.6188782033313,"brt",2013
535,"Estadio Parque Roca",-58.3916446791547,-34.6272404486539,"brt",2013
536,"Escalada",-58.3729716824552,-34.5947187543892,"brt",2013
537,"Larrazábal",-58.3706558054134,-34.600160791533,"brt",2013
538,"Larrazábal",-58.3952901985283,-34.6301792510668,"brt",2013
539,"Soldado de la Frontera",-58.3704353041607,-34.6013183105127,"brt",2013
540,"Soldado de la Frontera",-58.3703009132225,-34.6025471219032,"brt",2013
541,"Lisandro de la Torre",-58.3702154859646,-34.6036437754358,"brt",2013
542,"Piedrabuena",-58.3962075148135,-34.6279775923237,"brt",2013
543,"Guaminí",-58.3701116205372,-34.6049469250147,"brt",2013
544,"General Paz",-58.369447106737,-34.6098603367112,"brt",2013
545,"Dr. A. Sáenz",-58.3694322312309,-34.6105733448986,"commuter_rail",2019
546,"Puente La Noria",-58.4008579322591,-34.6317121733997,"brt",2013
547,"José L. Suárez",-58.3691179978224,-34.616595323175,"brt",2013
548,"Montiel",-58.40086181561,-34.6286636383982,"brt",2013
549,"Piedrabuena",-58.4071735238367,-34.6311210922306,"brt",2013
550,"Lisandro de la Torre",-58.4064834645379,-34.6338422742383,"brt",2013
551,"Pola",-58.409488087122,-34.6347542210299,"brt",2013
552,"Escalada",-58.4101283847952,-34.6336021658049,"brt",2013
553,"Cecilia Grierson",-58.4106992782924,-34.6363370021145,"brt",2013
554,"Laguna",-58.4155215349675,-34.6370856645695,"brt",2013
555,"Lafuente",-58.4128620365785,-34.6421637027509,"brt",2013
556,"Varela",-58.4571586839265,-34.6864517131881,"brt",2013
557,"San Lorenzo",-58.4193071604503,-34.6400374746727,"brt",2013
558,"Perito Moreno",-58.4231396730267,-34.6430971731788,"brt",2013
559,"Del Barco Centenera",-58.4635352451245,-34.6920814856819,"brt",2013
560,"Thames",-58.4142321439938,-34.6450593268593,"brt",2016
561,"Uriarte",-58.4158753923028,-34.6478255689394,"brt",2016
562,"Darregueyra",-58.416353080232,-34.6518038458718,"brt",2016
563,"Oro",-58.4661837453076,-34.6945276635533,"brt",2016
564,"Juan B. Justo",-58.41744254179,-34.6551082979254,"brt",2016
565,"Humboldt",-58.4217815391059,-34.6564045515883,"brt",2016
566,"Fitz Roy",-58.4653209111741,-34.6786827140002,"brt",2016
567,"Matienzo",-58.4263099434303,-34.6585645856525,"brt",2016
568,"Jorge Newbery",-58.4676189497139,-34.6958544441126,"brt",2016
569,"Maure",-58.4292709567829,-34.6599457490169,"brt",2016
570,"Gorostiaga",-58.432735339411,-34.6615400389175,"brt",2016
571,"Olleros",-58.4370736205261,-34.6635479946232,"brt",2016
572,"Teodoro García",-58.4698060878196,-34.6978452527924,"brt",2016
573,"Palpa",-58.4403963842414,-34.6664605310228,"brt",2016
574,"Aguilar",-58.4424514849931,-34.6683528236246,"brt",2016
575,"Céspedes",-58.445211929679,-34.6717154587695,"brt",2016
576,"Zabala",-58.4618504825329,-34.7045467451845,"brt",2016
577,"Virrey Loreto",-58.4481535274423,-34.6764116992589,"brt",2016
578,"Virrey Arredondo",-58.4529626997586,-34.6823743325826,"brt",2016
579,"Virrey del Pino",-58.4615581142933,-34.6753344777806,"brt",2016
580,"La Pampa",-58.4574907454583,-34.6862889231764,"brt",2016
581,"Sucre",-58.4780975840141,-34.6900781179825,"brt",2016
582,"Juramento",-58.4611882294734,-34.6898547320247,"brt",2016
583,"Mendoza",-58.4610632221823,-34.689912488587,"brt",2016
584,"Olazábal",-58.4768460191553,-34.6889360989254,"brt",2016
585,"Blanco Encalada",-58.4756717395082,-34.6878744660932,"brt",2016
586,"Monroe",-58.4722777878316,-34.6848118589321,"brt",2016
587,"Roosevelt",-58.4546750059305,-34.669144468447,"brt",2016
588,"Ugarte",-58.4489151580648,-34.6642767612385,"brt",2016
589,"Congreso",-58.4425924872395,-34.6594499792976,"brt",2015
590,"Quesada",-58.4380822132387,-34.6555236890337,"brt",2015
591,"Iberá",-58.4344849151592,-34.6530405783618,"brt",2015
592,"Campos Salles",-58.4310696117035,-34.6503097446952,"brt",2015
593,"Manuel Pedraza",-58.4546896854268,-34.5643622572724,"brt",2015
594,"Juana Azurduy",-58.4279905063974,-34.6475876943724,"brt",2015
595,"Núñez",-58.4221206226478,-34.5807148755526,"brt",2015
596,"Crisólogo Larralde",-58.4230170342336,-34.5801357772673,"brt",2015
597,"Manzanares",-58.4555074924672,-34.5634096177099,"brt",2015
598,"Paroissien",-58.4238895548482,-34.5795487127395,"brt",2015
599,"Vilela",-58.4247803858329,-34.57898031226,"brt",2015
600,"Besares",-58.4602280118511,-34.5579744667409,"brt",2015
601,"Ruiz Huidobro",-58.4268971220433,-34.5779548174023,"brt",2015
602,"Correa",-58.4568779306043,-34.5618120494919,"brt",2015
603,"Ramallo",-58.4413300321219,-34.5717817151281,"brt",2015
604,"Arias",-58.4611964396287,-34.556916314121,"brt",2015
605,"Deheza",-58.4422049722364,-34.571313676608,"brt",2015
606,"Pico",-58.4429444652284,-34.5709437848552,"brt",2015
607,"General Paz",-58.4683585671866,-34.5487620028816,"brt",2015
608,"Laprida",-58.4445646461487,-34.57013474006,"brt",2015
609,"Alsina",-58.4620992821365,-34.5559608671161,"brt",2015
610,"Álvarez",-58.4463536848319,-34.5692463520986,"brt",2015
611,"Lavalle",-58.4467403764046,-34.56905738477,"brt",2015
612,"Las Heras",-58.4471426320728,-34.5688597069862,"brt",2015
613,"Güemes",-58.4630615806775,-34.5549705931915,"brt",2015
614,"Melo",-58.4485246256089,-34.5681415147421,"brt",2015
615,"Haedo",-58.4490167465404,-34.567876552807,"brt",2015
616,"Santa Rosa",-58.4499287908045,-34.5673812672342,"brt",2015
617,"Roca",-58.4640410062343,-34.5540008755908,"brt",2015
618,"Urquiza",-58.4516251669063,-34.5664590781841,"brt",2015
619,"Vergara",-58.4525143027149,-34.565973523963,"brt",2015
620,"San Martín",-58.4578974439955,-34.5606224952042,"brt",2015
621,"Arenales",-58.464848853171,-34.5531287211438,"brt",2015
622,"Libertad",-58.4587235090495,-34.5596570626809,"brt",2015
623,"Yrigoyen",-58.4595421414759,-34.5587261146557,"brt",2015
624,"Italia",-58.4659939706147,-34.5516999650729,"brt",2015
625,"Malaver",-58.4663554135897,-34.5512414118884,"brt",2015
626,"Lugano",-58.4669531563146,-34.5504995195938,"commuter_rail",1909
627,"Pacífico",-58.4674008994359,-34.5499526654573,"brt",2011
628,"Guatemala",-58.469318402808,-34.5475615494989,"brt",2011
629,"Honduras",-58.4698354723362,-34.5468864811737,"brt",2011
630,"Aguirre",-58.4702904662361,-34.5462753126406,"brt",2011
631,"Av. Corrientes",-58.4708059837642,-34.5455842546106,"brt",2011
632,"Murillo",-58.4713220062136,-34.5448954939482,"brt",2011
633,"Av. Honorio Pueyrredón",-58.471863478739,-34.5441641684682,"brt",2011
634,"Av. San Martín",-58.4823808419041,-34.5263493498644,"brt",2011
635,"Av. Donato Álvarez",-58.4724563596864,-34.5433606279441,"brt",2011
636,"Boyacá",-58.4730153826939,-34.5426092882172,"brt",2011
637,"Artigas",-58.4735671277122,-34.5418823480224,"brt",2011
638,"Av. Nazca",-58.4829236669823,-34.5253731100203,"brt",2011
639,"Concordia",-58.4741980951992,-34.5410318797355,"brt",2011
640,"Chivilcoy",-58.4758520580061,-34.5388557418658,"brt",2011
641,"Av. Segurola",-58.4773827087993,-34.5359031242198,"brt",2011
642,"Carrasco",-58.4778984627242,-34.5348635367135,"brt",2011
643,"Av. Lope de Vega",-58.4783500047164,-34.533963581187,"brt",2011
644,"Cortina",-58.4788022695071,-34.5330639296406,"brt",2011
645,"Polideportivo Vélez Sarsfield",-58.4793220715503,-34.5320459014183,"brt",2011
646,"Liniers",-58.4798040970398,-34.5310960630911,"brt",2011
647,"Av. Córdoba",-58.4803353241485,-34.5300863174514,"brt",2019
648,"Belgrano C",-58.4807469400987,-34.5293158885722,"commuter_rail",2019
649,"Lisandro de la Torre",-58.4813417237548,-34.5282153700776,"commuter_rail",2019
650,"Villa Crespo",-58.4818639099772,-34.5272826908148,"commuter_rail",2023
651,"La Paternal",-58.4834894736438,-34.5243628695362,"commuter_rail",2022
652,"Facultad de Derecho - Julieta Lanteri",-58.4840039973449,-34.5234294229778,"heavy_rail",2018
653,"Villa Rosa",-58.4844914715816,-34.522522669506,"commuter_rail",1909
654,"Manuel Alberti",-58.4850442398123,-34.5214482094972,"commuter_rail",1965
655,"Tortuguitas",-58.4856297997583,-34.5203270015165,"commuter_rail",1947
656,"Grand Bourg",-58.4863490395476,-34.518989409076,"commuter_rail",1909
657,"Los Polvorines",-58.4154089586777,-34.6611677108205,"commuter_rail",1909
658,"Adolfo Sourdeaux",-58.4283395427613,-34.6813913284638,"commuter_rail",1955
659,"Boulogne Sur Mer",-58.4290015961017,-34.6979092661722,"commuter_rail",1909
660,"Carapachay",-58.4404651307606,-34.7051034764348,"commuter_rail",1930
661,"Florida",-58.4624605812908,-34.7188315018884,"commuter_rail",1912
662,"Miguel Manuel Padilla",-58.4728096932177,-34.7187717883684,"commuter_rail",1912
663,"Ciudad Universitaria",-58.5060165316475,-34.7099823327365,"commuter_rail",2015
664,"Aristóbulo del Valle",-58.4358648027245,-34.5625906323091,"commuter_rail",1912
665,"Zelaya",-58.4667358673287,-34.5968612419471,"commuter_rail",1892
666,"Saldías",-58.4494736297436,-34.55853930971,"commuter_rail",1912
667,"Capilla del Señor",-58.3624060571217,-34.67425264681,"commuter_rail",1892
668,"Los Cardales",-58.3560708255308,-34.7158970581451,"commuter_rail",1903
669,"Ángel Fernández",-58.3500736396983,-34.7314999776474,"commuter_rail",1926
670,"Monte Chingolo",-58.3428582651909,-34.751404900384,"commuter_rail",1926
671,"Pasco",-58.3166766863954,-34.781341286182,"commuter_rail",1926
672,"San Francisco Solano",-58.274151470712,-34.7972333097882,"commuter_rail",1926
673,"Gobernador Monteverde",-58.2570640407194,-34.8031741051376,"commuter_rail",1926
674,"Kilómetro 40",-58.2326045368059,-34.8329089093102,"commuter_rail",1926
675,"Kilómetro 36",-58.4382465912592,-34.5888397020154,"commuter_rail",1926
676,"Ingeniero Allan",-58.4542975993282,-34.5487987946444,"commuter_rail",1926
677,"Centro Agrícola El Pato",-58.8241201824886,-34.4392205486851,"commuter_rail",1926
678,"Arturo Seguí",-58.4467226822074,-34.5925964119688,"commuter_rail",1926
679,"Joaquín Gorina",-58.4667363245745,-34.5968604176501,"commuter_rail",1926
680,"La Cumbre",-58.3926964861744,-34.6092392420684,"commuter_rail",1926
681,"Gambier",-58.1883198635681,-34.868390668388,"commuter_rail",1926
682,"La Plata",-58.1720624442136,-34.877846522161,"commuter_rail",1926
683,"Solá",-58.126335792981,-34.88843972969,"commuter_rail",1969
684,"Scalabrini Ortiz",-58.0407271591168,-34.9086533391381,"commuter_rail",1912
685,"Lambaré",-57.9942236174995,-34.9229742234864,"brt",2018
686,"Fassola",-57.9746946233516,-34.9374388703493,"brt",2018
687,"Dolores Prats",-57.9390407667287,-34.939732782819,"brt",2018
688,"Primera Junta",-58.3880347727607,-34.6454617775807,"brt",2018
689,"Derqui",-58.4163394421663,-34.6490975109001,"brt",2018
690,"La Rioja",-58.4382477435858,-34.5483374832755,"brt",2018
691,"Amado Nervo",-58.586424693863,-34.6355591724321,"brt",2018
692,"Tucumán",-58.5921784105066,-34.6354627099228,"brt",2017
693,"Hugo del Carril",-58.5974326563291,-34.6355786075025,"brt",2017
694,"Gabino Ezeiza",-58.6026088043796,-34.6358124513637,"brt",2017
695,"1° de Mayo",-58.6128678041085,-34.6342418753672,"brt",2017
696,"Hospital Dr. Bocalandro",-58.6173716506122,-34.6336012027925,"brt",2017
697,"General Lavalle",-58.5817628245329,-34.702992839879,"brt",2017
698,"San Martín",-58.308380584557,-34.7129480549779,"brt",2017
699,"Los Andes",-58.6075698135573,-34.6350473995894,"brt",2019
700,"Montevideo",-58.3048528622978,-34.7163824987649,"brt",2019
701,"Cerrito",-58.303682666148,-34.7201559825026,"brt",2019
702,"Zapiola",-58.6241780091548,-34.5628300259069,"brt",2019
703,"Fornabaio",-58.3021172946346,-34.7252809070053,"brt",2019
704,"Esquiú",-58.2841075644015,-34.7529030099642,"brt",2019
705,"Centro Comercial",-58.6197385283668,-34.5628201835365,"brt",2019
706,"General Savio",-58.282252584031,-34.7552982442168,"brt",2019
707,"Hospital el Cruce",-58.2784877504028,-34.7601015810179,"brt",2019
708,"República de Francia",-58.6134764385295,-34.5627659843635,"brt",2019
709,"UNAJ",-58.2746834300945,-34.7649686262979,"brt",2019
710,"Rotonda San Justo",-58.2719537407782,-34.7684683577907,"brt",2017
711,"Dr. Ignacio Arieta",-58.6100622480183,-34.5627608729396,"brt",2017
712,"Derqui",-58.2690718702822,-34.7715424032334,"brt",2017
713,"Gral. Madariaga",-58.26745130266,-34.7736600830873,"brt",2017
714,"Pedro León Gallo",-58.5935074184737,-34.5626294353625,"brt",2017
715,"Hospital Paroissien",-58.6026248169836,-34.5627277814938,"brt",2017
716,"Roma",-58.5983342414414,-34.5626691780265,"brt",2017
717,"Cristianía",-58.5987960347977,-34.7247126640316,"brt",2017
718,"Marconi",-58.5964228037938,-34.7197186557211,"brt",2017
719,"Carlos Casares",-58.5921928097464,-34.7136189898326,"brt",2017
720,"Tres Cruces",-58.5868966355315,-34.7083843700343,"brt",2017
721,"Hospital Materno Infantil",-58.5763120588301,-34.6969771249364,"brt",2017
722,"P. Luro",-58.5737374803166,-34.6939775654152,"brt",2017
723,"Salvigny",-58.5694806551393,-34.6906434398413,"brt",2017
724,"Recuero",-58.5644335066583,-34.6876586519702,"brt",2017
725,"Da Vinci",-58.5569828430416,-34.6842443639132,"brt",2017
726,"Intendente Federico Russo",-58.5549271489644,-34.6827913791917,"brt",2017
727,"Centro de Trasbordo González Catán",-58.3719799659101,-34.596806218303,"brt",2017
728,"O´Donnell",-58.3702336815603,-34.6034065306261,"brt",2019
729,"José Hernández",-58.6164589929269,-34.7593901383876,"brt",2019
730,"Martín Fierro",-58.6144251453173,-34.7544527336923,"brt",2019
731,"Cuba",-58.6089317688826,-34.7450047106951,"brt",2019
732,"Reconquista",-58.6116614391895,-34.7491526786548,"brt",2019
733,"Guido Spano",-58.6062297326644,-34.7409140043576,"brt",2019
734,"Hospital Eva Perón",-58.6036690330819,-34.7357737794715,"brt",2019
735,"José C. Paz",-58.6015403796683,-34.7304575150261,"brt",2019
736,"Moreno",-58.5858137682265,-34.5626020549251,"brt",2019
737,"Murature",-58.5804067560301,-34.5626113902703,"brt",2019
738,"Av. General Paz",-58.5735956847741,-34.5639933097958,"brt",2019
739,"Rodríguez Peña",-58.568584537249,-34.5650973057036,"brt",2019
740,"20 de Junio",-58.5650358653135,-34.5658753532617,"commuter_rail",2019
741,"Uribelarrea",-58.5608664150455,-34.5667903308922,"commuter_rail",2019
742,"Empalme Lobos",-58.5568717048677,-34.5686708415706,"commuter_rail",1871
743,"Lobos",-58.553557510339,-34.5713008197056,"commuter_rail",1871
744,"Monte",-58.5485759457905,-34.5752635379371,"commuter_rail",2019
745,"Abbott",-58.5236064869426,-34.5879357663524,"commuter_rail",2019
746,"La Noria",-58.5199375753345,-34.5890406192435,"commuter_rail",2019
747,"Policlínico",-58.2650060893807,-34.7769090883765,"light_rail",2013
748,"Diagonal 73",-58.7379790174415,-34.7802219436503,"light_rail",2013
749,"Periodismo",-58.8984450120404,-35.1153868590158,"light_rail",2013
750,"Medicina",-58.8175702746541,-35.4366846953175,"light_rail",2013
751,"Informática",-58.8028429212513,-35.2813131767579,"light_rail",2013
752,"Arquitectura",-58.7881698168734,-35.1652455508379,"light_rail",2013
753,"La Plata",-57.9213603898547,-34.9253792959497,"light_rail",2013
754,"Cabral",-57.919112823989,-34.9200396950304,"brt",2019
755,"Sáenz",-57.924089277734,-34.9123787178412,"heavy_rail",999999
756,"Lavalleja",-57.9281310519259,-34.9088090579551,"brt",2019
757,"Panamericana",-57.9377420940476,-34.9031983135581,"commuter_rail",NA
758,"Marcos Paz",-57.9428309932307,-34.9048164325446,"commuter_rail",2021
759,"Avenida 7",-57.9497793501065,-34.9040372757165,"light_rail",2022
760,"Circunvalación",-58.5256635338656,-34.5873475190047,"light_rail",2022
761,"Meridiano V",-58.8296513868012,-34.7865771924314,"light_rail",2022
762,"Avenida 25",-57.9275542376445,-34.9311341188428,"light_rail",2022
763,"Saldías",-57.9337667168428,-34.9367627758245,"commuter_rail",2024
764,"Quilmes Sur",-57.9398783870949,-34.9424259281369,"commuter_rail",NA
765,"Hospital Cuenca Alta",-57.9461190466237,-34.9480401745969,"commuter_rail",NA
766,"Gdor. Costa",-58.370957612546,-34.6088370832277,"commuter_rail",NA
767,"UNAB",-58.5352245894718,-34.863864706303,"commuter_rail",NA
768,"Güemes",-58.3621603194411,-34.6725784782711,"commuter_rail",NA
769,"Hospital Ezeiza",-58.9384266310315,-34.8289779104362,"commuter_rail",NA
770,"Villars",-58.7284916215901,-35.0258519538445,"commuter_rail",2022
771,"Manuela Pedraza",-58.466274417671,-34.5512987311878,"heavy_rail",NA
