"nodeID","nodeLabel","longitud","latitud","mode","year"
1,"Villon",4.8633398,45.7384266,"default",0
2,"Archives Départementales",4.8617846,45.7542346,"default",0
3,"Garibaldi Berthelot",4.8468949,45.7436882,"default",0
4,"Route de Vienne",4.8517781,45.742127,"default",0
5,"Jet d'eau - Mendès France",4.8588068,45.7398789,"default",0
6,"Boutasse - Camille Rousset",4.9044755,45.7349162,"default",0
7,"Ambroise Paré",4.8839085,45.7415448,"default",0
8,"Essarts-Iris",4.8982142,45.7372209,"default",0
9,"Esplanade des Arts",4.940614,45.6945021,"default",0
10,"Hôtel de Ville - Bron",4.9091102,45.7334086,"default",0
11,"Les Alizés",4.9147571,45.7315444,"default",0
12,"Alfred de Vigny",4.9361599,45.6996144,"default",0
13,"Cordière",4.9497481,45.6936754,"default",0
14,"Hauts de Feuilly",4.9376463,45.7081204,"default",0
15,"Europe Université",4.9181416,45.7196338,"default",0
16,"Eurexpo",4.948133,45.7318991,"default",0
17,"De Tassigny - Curial",4.9169831,45.7357549,"default",0
18,"Parilly - Université - Hippodrome",4.9153064,45.7220408,"default",0
19,"Parc du Chêne",4.9266222,45.7390245,"default",0
20,"Rebufer",4.9157222,45.7275143,"default",0
21,"Lycée Jean-Paul Sartre",4.9221882,45.7380281,"default",0
22,"Bellecour",4.83322286616095,45.7576374986457,"default",1978
23,"Foch",4.84448201070987,45.7687490487633,"default",1978
24,"République - Villeurbanne",4.8740097521528,45.7705284650759,"default",1978
25,"Cusset",4.90082385273547,45.7656089129665,"default",1978
26,"Croix-Rousse",4.8330144168948,45.774441052123,"default",1891
27,"Rue Terme",4.8309641237762,45.7697544148952,"default",1862
28,"Croix-Rousse",4.83089872092111,45.7740680050086,"default",1862
29,"Perrache",4.82704870683156,45.7494917348151,"default",1978
30,"Cordeliers",4.83580939130411,45.763291110237,"default",1978
31,"Masséna",4.85343722963441,45.7695877206335,"default",1978
32,"Gratte-Ciel",4.88238923278922,45.7690120755047,"default",1978
33,"Laurent Bonnevay - Astroballe",4.90884061073066,45.7641215406626,"default",1978
34,"Flachet - Alain Gilles",4.88930183715803,45.7677229677718,"default",1978
35,"Vaulx-en-Velin - La Soie",4.92184637894024,45.7612126862061,"default",2007
36,"Croix-Paquet",4.83647969496693,45.7708160121006,"default",1891
37,"Ampère - Victor Hugo",4.82915991049074,45.7530127517823,"default",1978
38,"Hôtel de Ville - Louis Pradel",4.83605188670455,45.7672464071581,"default",1978
39,"Charpennes - Charles Hernu",4.86365285648682,45.7705415995825,"default",1978
40,"Saint-Paul",4.82173397284439,45.7634263834858,"default",1900
41,"Jean Macé",4.83733288853983,45.7375892150557,"default",1981
42,"Vieux Lyon - Cathédrale Saint-Jean",4.83344479725685,45.7310408478966,"default",1900
43,"Saint-Just",4.82693613107151,45.7657380854433,"default",1878
44,"Saxe - Gambetta",4.84228211899483,45.7459011477617,"default",1981
45,"Fourvière",4.82577526034126,45.760038438168,"default",1900
46,"Fourvière",4.81628526484528,45.7571542761414,"default",1900
47,"Place Jean Jaurès",4.8466904591736,45.7533497954729,"default",2000
48,"Debourg",4.82147488184989,45.762386038155,"default",2000
49,"Stade de Gerland",4.83083503136868,45.7266957842013,"default",2000
50,"Gare d'Oullins",4.81452094545793,45.7166806107656,"default",2013
51,"Cuire",4.8326489971069,45.7852981918782,"default",1984
52,"Gorge de Loup",4.80547388116062,45.7664312998019,"default",1991
53,"Vieux Lyon - Cathédrale Saint-Jean",4.82562702181716,45.7602247512885,"default",1991
54,"Bellecour",4.8334410190846,45.7569729327852,"default",1991
55,"Grange Blanche",4.87884060606987,45.7429338295007,"default",1991
56,"Vieux Lyon - Cathédrale Saint-Jean",4.82593443864721,45.7599846616064,"default",1878
57,"Brotteaux",4.85938742954318,45.7670562139228,"default",1978
58,"Gare Part-Dieu",4.85789253243669,45.7616785393377,"default",1978
59,"Place Guichard - Bourse du Travail",4.84737760024544,45.7592173482347,"default",1981
60,"Croix-Paquet",4.83623157825735,45.7710729593609,"default",1974
61,"Croix-Rousse",4.83202645424797,45.7745002985538,"default",1974
62,"Hénon",4.82750573063097,45.7795013922183,"default",1984
63,"Hôtel de Ville - Louis Pradel",4.83602459468543,45.7681119176908,"default",1978
64,"Charpennes",4.86321596347927,45.7704329898191,"default",1978
65,"Guillotière - Gabriel Péri",4.84288743725619,45.7553443173759,"default",1991
66,"Gare Part-Dieu - Villette",4.86161875093055,45.7605589343115,"default",2010
67,"Saxe - Gambetta",4.8474343469,45.7537591771662,"default",1991
68,"Garibaldi",4.85349199898963,45.751635500055,"default",1991
69,"Sans Souci",4.86522524667018,45.7475817355452,"default",1991
70,"Monplaisir - Lumière",4.87139580969813,45.7455029893254,"default",1991
71,"Valmy",4.80541100814455,45.7745998523943,"default",1997
72,"Gare de Vaise",4.80436310502131,45.7804070619395,"default",1997
73,"Laënnec",4.88658269221509,45.7383669774792,"default",1992
74,"Mermoz - Pinel",4.88733303691089,45.7306257886331,"default",1992
75,"Parilly",4.88754114237921,45.7195387864125,"default",1992
76,"Gare de Vénissieux",4.88799931801833,45.7055942583293,"default",1992
77,"Vaulx-en-Velin - La Soie",4.92218379208319,45.7610648224578,"default",2010
78,"Meyzieu Z.I.",5.03168431174254,45.7677086982589,"default",2010
79,"Aéroport de Lyon-Saint-Exupéry",5.07605943399406,45.7210248726747,"default",2010
80,"Debourg",4.83460481349695,45.7311656394985,"default",2014
81,"Suchet",4.82458558565435,45.7471002649791,"default",2005
82,"Sainte-Blandine",4.82213558788806,45.7442173946188,"default",2005
83,"Hôtel de Région - Montrochet",4.81903376067694,45.7405779392374,"default",2005
84,"Musée des Confluences",4.81891230431842,45.7336327705538,"default",2014
85,"Halle Tony Garnier",4.82282373336486,45.731710827606,"default",2014
86,"ENS Lyon",4.8288432080877,45.7314144764933,"default",2014
87,"Lyon-Saint-Paul",4.8265023,45.7662446,"default",0
88,"La Doua - Gaston Berger",4.8721608,45.7815207,"default",0
89,"Chaponost",4.7642278,45.6981613,"default",0
90,"Écully-la-Demi-Lune",4.7790949,45.7658061,"default",0
91,"Charbonnières-les-Bains",4.7363154,45.7815818,"default",0
92,"Condorcet",4.8668935,45.7779369,"default",0
93,"La Tour-de-Salvagny",4.716443,45.7998157,"default",0
94,"Francheville",4.769671,45.733692,"default",0
95,"Fleurieux-sur-l'Arbresle",4.6600604,45.8452584,"default",0
96,"L'Arbresle",4.6177084,45.8326071,"default",0
97,"Charpennes - Charles Hernu",4.8630183,45.7709529,"default",0
98,"INSA - Einstein",4.8776491,45.7824673,"default",0
99,"Thiers - Lafayette",4.8620149,45.7643245,"default",0
100,"Guillotière",4.8424764,45.7549145,"default",0
101,"Palais de Justice - Mairie du 3e",4.8483927,45.7603515,"default",0
102,"Quai Claude Bernard",4.8352011,45.7495841,"default",0
103,"Le Méridien",4.7484922,45.7685096,"default",0
104,"Tassin",4.7585595,45.7616434,"default",0
105,"Lentilly",4.6666743,45.8221559,"default",0
106,"Casino-Lacroix-Laval",4.7307442,45.787897,"default",0
107,"Lentilly-Charpenay",4.6820619,45.8164293,"default",0
108,"Sain-Bel",4.6018135,45.8115328,"default",0
109,"Lyon-Gorge-de-Loup",4.804723,45.7660433,"default",0
110,"Alaï",4.7718385,45.7518848,"default",0
111,"Brignais",4.7638663,45.6737515,"default",0
112,"Collège Bellecombe",4.8619039,45.766685,"default",0
113,"Université Lyon 1",4.8663364,45.7808956,"default",0
114,"Croix-Luizet",4.8831584,45.7837023,"default",0
115,"Le Tonkin",4.8640441,45.7740997,"default",0
116,"IUT - Feyssine",4.8819245,45.786852,"default",0
117,"Liberté",4.8424196,45.7588575,"default",0
118,"Part-Dieu - Servient",4.8538018,45.7607292,"default",0
119,"Saint-André",4.8410239,45.7528923,"default",0
120,"Gare Part-Dieu - Vivier Merle",4.8578128,45.7619453,"default",0
121,"Darnaise",4.8643379,45.6926515,"default",0
122,"Herriot - Cagne",4.8754428,45.6937696,"default",0
123,"Division Leclerc",4.8681589,45.6984273,"default",0
124,"Hôpital Feyzin Vénissieux",4.865184,45.6882795,"default",0
125,"Saxe-Préfecture",4.8452789,45.7601369,"default",0
126,"Rue de l'Université",4.838979,45.7511752,"default",0
127,"Lénine - Corsière",4.8617597,45.6968368,"default",0
128,"Lycée Jacques Brel",4.8799064,45.6949124,"default",0
129,"Vénissy",4.8719378,45.6960059,"default",0
130,"Maurice Thorez",4.8633416,45.6998403,"default",0
131,"Joliot Curie - Marcel Sembat",4.8783747,45.7155088,"default",0
132,"Professeur Beauvisage - C.I.S.L.",4.8672885,45.7297478,"default",0
133,"Lycée Lumière",4.8618293,45.7367433,"default",0
134,"États-Unis Viviani",4.8711111,45.7248324,"default",0
135,"États-Unis - Musée Tony Garnier",4.8647379,45.7330258,"default",0
136,"Gare de Vénissieux",4.887712,45.705666,"default",0
137,"Croizat - Paul Bert",4.8876094,45.7000446,"default",0
138,"Marcel Houël - Hôtel de Ville",4.8845271,45.6965134,"default",0
139,"La Borelle",4.8821463,45.7111249,"default",0
140,"Jet d'eau - Mendès France",4.8591215,45.7400909,"default",0
141,"Vénissy",4.871963,45.6960212,"default",0
142,"Hôpital Feyzin Vénissieux",4.8651436,45.6881608,"default",0
143,"Darnaise",4.8643149,45.6926306,"default",0
144,"Lycée Lumière",4.8617905,45.7368618,"default",0
145,"Lycée Colbert",4.8590722,45.745656,"default",0
146,"Jean Macé",4.8422975,45.7451542,"default",0
147,"Manufacture Montluc",4.8603426,45.7501461,"default",0
148,"Manufacture Montluc",4.8603071,45.750151,"default",0
149,"Gare Part-Dieu - Villette",4.861982,45.7607803,"default",0
150,"Bachut - Mairie du 8e",4.8683451,45.7368224,"default",0
151,"Centre Berthelot",4.8363551,45.7470544,"default",0
152,"Grange Blanche",4.8795981,45.7424648,"default",0
153,"Jean XXIII - Maryse Bastié",4.8744774,45.7401618,"default",0
154,"Boutasse - Camille Rousset",4.9044899,45.7349405,"default",0
155,"Vinatier",4.8931944,45.7388713,"default",0
156,"Jean XXIII - Maryse Bastié",4.8744462,45.7401855,"default",0
157,"Saint-Priest - Hôtel de Ville",4.9368694,45.695067,"default",0
158,"Porte des Alpes",4.9257886,45.7184057,"default",0
159,"Parc Technologique",4.9312586,45.7143835,"default",0
160,"Saint-Priest - Bel Air",4.9558382,45.6926654,"default",0
161,"Saint-Priest - Jules Ferry",4.9468169,45.6947299,"default",0
162,"Salvador Allende",4.9349246,45.7034326,"default",0
