"nodeID","nodeLabel","longitud","latitud","mode","year"
1,"Cologno Sud",9.27493036790321,45.5201885323388,"heavy_rail",1981
2,"Garibaldi FS",9.18670696446392,45.483608858072,"heavy_rail",2014
3,"San Siro Stadio",9.11851206991875,45.4762036298482,"heavy_rail",2015
4,"Bignami",9.21210043085654,45.5266692576344,"heavy_rail",2013
5,"Sesto Marelli",9.22798051121552,45.5235737163428,"heavy_rail",1964
6,"Ponale",9.20956941134622,45.5221677184005,"heavy_rail",2013
7,"Bicocca",9.20540801471364,45.5148267965851,"heavy_rail",2013
8,"Cairoli",9.18202825600156,45.4684601789234,"heavy_rail",1964
9,"Ca' Granda",9.2012483911036,45.5074767459779,"heavy_rail",2013
10,"Villa San Giovanni",9.22611874834013,45.5173789288945,"heavy_rail",1964
11,"Istria",9.1979832001339,45.5017046169347,"heavy_rail",2013
12,"Marche",9.19479707716991,45.4960790352221,"heavy_rail",2013
13,"Zara",9.19284508998589,45.4925919123309,"heavy_rail",2013
14,"Precotto",9.22452015156688,45.5120686171258,"heavy_rail",1964
15,"Isola",9.19130971455743,45.4875833491324,"heavy_rail",2014
16,"Bussero",9.37531998546712,45.5251410425658,"heavy_rail",1972
17,"Cadorna FN",9.17643849979032,45.4682448219791,"heavy_rail",1964
18,"Gorla",9.22285996224218,45.5065442916941,"heavy_rail",1964
19,"Monumentale",9.17970251479468,45.4849401727161,"heavy_rail",2015
20,"Cenisio",9.17171232336392,45.4874834079142,"heavy_rail",2015
21,"Gerusalemme",9.1668044209724,45.4845664124269,"heavy_rail",2015
22,"Turro",9.22106117562288,45.5005650073727,"heavy_rail",1964
23,"Domodossola",9.161005930887,45.4809495513219,"heavy_rail",2015
24,"Tre Torri",9.15667396781816,45.4782454905224,"heavy_rail",2015
25,"Cascina Gobba",9.26059677847152,45.5111823973627,"heavy_rail",1969
26,"Portello",9.15033788797749,45.4814606703902,"heavy_rail",2015
27,"Rovereto",9.21959902266298,45.4957468811408,"heavy_rail",1964
28,"Lotto",9.14396784726438,45.4798348030115,"heavy_rail",2015
29,"Segesta",9.13761077545931,45.4760260741876,"heavy_rail",2015
30,"Conciliazione",9.16632390809721,45.4674704384956,"heavy_rail",1964
31,"San Siro Ippodromo",9.12885237039313,45.4760735547896,"heavy_rail",2015
32,"Pasteur",9.21819952350026,45.4910701217893,"heavy_rail",1964
33,"Loreto",9.21633662381669,45.4858042737339,"heavy_rail",1964
34,"Pagano",9.16136121366119,45.4682829344227,"heavy_rail",1964
35,"Lima",9.21097001626404,45.4803642352715,"heavy_rail",1964
36,"Porta Venezia",9.20555067122908,45.4749281313837,"heavy_rail",1964
37,"Loreto",9.21532896224784,45.4844798335148,"heavy_rail",1969
38,"Palestro",9.20194341080187,45.4714099857139,"heavy_rail",1964
39,"Buonarroti",9.15537531795883,45.4703586076214,"heavy_rail",1964
40,"San Babila",9.19747485976433,45.4664741957841,"heavy_rail",1964
41,"Duomo",9.18931220875243,45.4646775251723,"heavy_rail",1964
42,"Crescenzago",9.24820338546979,45.5051815857792,"heavy_rail",1969
43,"Cordusio",9.18626898883267,45.4654296413663,"heavy_rail",1964
44,"Amendola",9.15100743216979,45.4736704963377,"heavy_rail",1964
45,"Lotto",9.14367436725402,45.4792364855206,"heavy_rail",1964
46,"Wagner",9.15584904007483,45.4680263261279,"heavy_rail",1966
47,"Centrale FS",9.20375661856403,45.4845843142671,"heavy_rail",1970
48,"De Angeli",9.14946216725565,45.4664201144419,"heavy_rail",1966
49,"Gambara",9.14302350886331,45.4649919981472,"heavy_rail",1966
50,"Udine",9.23693321443344,45.4910561889102,"heavy_rail",1969
51,"Caiazzo",9.21006411090954,45.4853853322364,"heavy_rail",1969
52,"Garibaldi FS",9.18768511473803,45.4834781126395,"heavy_rail",1971
53,"Piola",9.22508092348434,45.480814816653,"heavy_rail",1969
54,"Villa Pompea",9.38498645025695,45.5278636696535,"heavy_rail",1972
55,"Lambrate FS",9.23510313045796,45.4842910654164,"heavy_rail",1969
56,"Gioia",9.19536029797345,45.4845406223732,"heavy_rail",1971
57,"Gorgonzola",9.40349535543555,45.5367577130153,"heavy_rail",1972
58,"Cascina Burrona",9.29727908261037,45.5173050787173,"heavy_rail",1972
59,"Cassina De Pecchi",9.36282228509231,45.5218708279008,"heavy_rail",1972
60,"Villa Fiorita",9.34546409208502,45.5206419845209,"heavy_rail",1972
61,"Vimodrone",9.28616891144918,45.5158028383003,"heavy_rail",1972
62,"Cernusco sul Naviglio",9.33112552606943,45.5209937906243,"heavy_rail",1972
63,"Cadorna FN",9.1769558318313,45.4680024750323,"heavy_rail",1978
64,"Moscova",9.18478688149713,45.4779634169329,"heavy_rail",1978
65,"Lanza",9.18251665810138,45.4721669842352,"heavy_rail",1978
66,"Cologno Nord",9.29114933994225,45.5343036556353,"heavy_rail",1981
67,"Dateo",9.21795602869034,45.4679893700198,"heavy_rail",NA
68,"Sforza-Policlinico",9.19412185909957,45.4583383642889,"heavy_rail",NA
69,"Cascina Antonietta",9.42347946415703,45.542071725117,"heavy_rail",1985
70,"Famagosta",9.16826332643373,45.4371497238257,"heavy_rail",1994
71,"De Amicis",9.17742627371445,45.4590359833869,"heavy_rail",NA
72,"Assago Milanofiori Forum",9.14554290300146,45.4017512057579,"heavy_rail",2011
73,"Repubblica",9.19753513766176,45.4789790036215,"heavy_rail",1990
74,"Foppa",9.16037413799771,45.4577159638843,"heavy_rail",NA
75,"Montenapoleone",9.19277906028626,45.4700449534781,"heavy_rail",1990
76,"Crocetta",9.19565933445409,45.4561955911181,"heavy_rail",1990
77,"Frattini",9.14242755576669,45.4518792675778,"heavy_rail",NA
78,"Brenta",9.21860754226432,45.4427282930002,"heavy_rail",1991
79,"Rogoredo FS",9.23846387441074,45.4334622675953,"heavy_rail",1991
80,"San Cristoforo FS",9.12965844212061,45.4433030215282,"heavy_rail",NA
81,"Sondrio",9.20077302387082,45.4898247492548,"heavy_rail",1991
82,"Sant'Agostino",9.17006412167635,45.4587785618015,"heavy_rail",1983
83,"Inganni",9.12224756453472,45.4575963204757,"heavy_rail",1975
84,"Maciachini",9.1848902240082,45.4978526635459,"heavy_rail",2003
85,"QT8",9.1369602755276,45.4861161625934,"heavy_rail",1975
86,"Dergano",9.17958087910026,45.5054992000351,"heavy_rail",2011
87,"Bonola",9.11031201696747,45.4971767143705,"heavy_rail",1980
88,"Affori Centro",9.17395173601739,45.5134785459507,"heavy_rail",2011
89,"Rho Fiera",9.08681150181104,45.5194321807062,"heavy_rail",2005
90,"Zara",9.19281321869204,45.4925704805997,"heavy_rail",1995
91,"Bettola",9.28294341959494,45.5274955425308,"heavy_rail",2021
92,"Forlanini FS",9.17323674837746,45.4616717396285,"heavy_rail",2021
93,"Cologno Centro",9.16989465431826,45.453034422473,"heavy_rail",1981
94,"Sant'Ambrogio",9.16741694374889,45.4439900760124,"heavy_rail",1983
95,"Porta Genova FS",9.4365934810514,45.5452509847642,"heavy_rail",1983
96,"Romolo",9.1775893493346,45.4300118225956,"heavy_rail",1985
97,"Gessate",9.17304833999091,45.462463989358,"heavy_rail",1985
98,"Abbiategrasso",9.15003317509485,45.409447877663,"heavy_rail",2005
99,"Sant'Ambrogio",9.20263482973078,45.4850215496882,"heavy_rail",NA
100,"Assago Milanofiori Nord",9.19478278310004,45.4746215671736,"heavy_rail",2011
101,"Centrale FS",9.1885521345101,45.4641847689218,"heavy_rail",1990
102,"Sesto Restellone",9.18884998220167,45.4602533078962,"heavy_rail",2021
103,"Turati",9.20313884378356,45.451598093057,"heavy_rail",1990
104,"Duomo",9.165060290458,45.4592568223062,"heavy_rail",1990
105,"Missori",9.21014979783308,45.4473139370818,"heavy_rail",1990
106,"Porta Romana",9.22358616792042,45.4402874986781,"heavy_rail",1990
107,"Parco Solari",9.230193692391,45.4371894280348,"heavy_rail",NA
108,"Lodi TIBB",9.25627365715206,45.4291210125245,"heavy_rail",1991
109,"Corvetto",9.16821819961362,45.5218230711801,"heavy_rail",1991
110,"Porto di Mare",9.16321678364807,45.5290279616532,"heavy_rail",1991
111,"San Donato",9.23156992319434,45.5344007782093,"heavy_rail",1991
112,"Affori FN",9.24800750096736,45.5560014351266,"heavy_rail",2011
113,"Comasina",9.2446364670754,45.5483555034434,"heavy_rail",2011
114,"Sesto Rondò",9.15368661763418,45.4555306197303,"heavy_rail",1986
115,"Washington-Bolivar",9.14835895566151,45.4537973725828,"heavy_rail",NA
116,"Tolstoi",9.23127010953797,45.4681341558644,"heavy_rail",NA
117,"Argonne",9.13571443734523,45.4497004878523,"heavy_rail",NA
118,"Q.re Forlanini",9.22446321315027,45.4680531065118,"heavy_rail",2021
119,"Aeroporto Linate",9.20795247613674,45.4678854790392,"heavy_rail",2021
120,"Gelsomini",9.1977008862917,45.4660724557135,"heavy_rail",NA
121,"Susa",9.13109085124955,45.4472190037824,"heavy_rail",NA
122,"Tricolore",9.18801674815506,45.4562348490413,"heavy_rail",NA
123,"San Babila",9.23833654677227,45.5416507159102,"heavy_rail",NA
124,"Segneri",9.18238247549783,45.4570258220158,"heavy_rail",NA
125,"Santa Sofia",9.11278723422157,45.4552681747203,"heavy_rail",NA
126,"Sesto 1° Maggio FS",9.12962000644654,45.4595273801762,"heavy_rail",1986
127,"Vetra",9.13686185365282,45.4616303708941,"heavy_rail",NA
128,"Bisceglie",9.12729871701697,45.4896295673954,"heavy_rail",1992
129,"Primaticcio",9.1211576558631,45.4935008806389,"heavy_rail",1975
130,"Bande Nere",9.10167465263669,45.5012364622408,"heavy_rail",1975
131,"Lampugnano",9.09324283210483,45.505105119364,"heavy_rail",1980
132,"Uruguay",9.08594071773217,45.508742080416,"heavy_rail",1980
133,"San Leonardo",9.24070084777722,45.4994913199562,"heavy_rail",1980
134,"Molino Dorino",9.07994134585488,45.6248807361906,"heavy_rail",1986
135,"Pero",9.06695652926558,45.4204109343599,"heavy_rail",2005
136,"Cimiano",9.10896312844557,45.4359139502338,"heavy_rail",1969
137,"Milano Affori",8.92067394008799,45.3975909634292,"commuter_rail",2011
138,"Milano Affori",8.73191847033888,45.2521606505915,"commuter_rail",2011
139,"Seveso",9.21728149484943,45.4679915982749,"commuter_rail",2004
140,"Seveso",9.241043998641,45.4620116201147,"commuter_rail",2004
141,"Milano Nord Bovisa-Politecnico",9.27830249463145,45.4626222277165,"commuter_rail",1879
142,"Milano Nord Bovisa-Politecnico",9.17630888556362,45.4939778452179,"commuter_rail",1879
143,"Milano Nord Bovisa-Politecnico",9.21487846898776,45.5129784577747,"commuter_rail",1879
144,"Milano Nord Bovisa-Politecnico",9.21354552777606,45.4458921537123,"commuter_rail",1879
145,"Novara",9.23516200884177,45.6061298305492,"commuter_rail",2004
146,"Vittuone-Arluno",9.14188212783884,45.6320825424506,"commuter_rail",2004
147,"Milano Bruzzano",9.1006222046199,45.6272858134522,"commuter_rail",2004
148,"Milano Bruzzano",9.21847379657279,45.6201440285716,"commuter_rail",2004
149,"Milano Bruzzano",9.20263844496435,45.6458716059638,"commuter_rail",2014
150,"Milano Bruzzano",9.16748428832759,45.4432871835292,"commuter_rail",2014
151,"Cormano-Cusano Milanino",9.16301173113055,45.6380554476947,"commuter_rail",2015
152,"Cormano-Cusano Milanino",9.13672609201328,45.6305503427823,"commuter_rail",2015
153,"Cusano Milanino",9.04567753723484,45.6126503526622,"commuter_rail",2004
154,"Cusano Milanino",9.0304059156565,45.6252412695567,"commuter_rail",2004
155,"Cesano Maderno",9.09142927129128,45.4302837550958,"commuter_rail",2004
156,"Cesano Maderno",9.15077563308833,45.5021188207287,"commuter_rail",2004
157,"Milano Cadorna",9.0311646083953,45.4088426499048,"commuter_rail",1879
158,"Milano Cadorna",9.10512642754793,45.4346790570928,"commuter_rail",1879
159,"Rho Fiera",9.48096277077519,45.5128134089024,"commuter_rail",2008
160,"Trecate",9.13018777229268,45.4423820767176,"commuter_rail",2004
161,"Pregnana Milanese",9.16924326978344,45.4531244480905,"commuter_rail",2009
162,"Cormano-Brusuglio",9.18655929047424,45.4840836421989,"commuter_rail",2004
163,"Cormano-Brusuglio",9.19809676745012,45.4806930670877,"commuter_rail",2004
164,"Palazzolo Milanese",9.20885429076489,45.4757452864433,"commuter_rail",2004
165,"Palazzolo Milanese",9.23701063609644,45.4639800185361,"commuter_rail",2004
166,"Varedo",9.23725484863829,45.4852846474848,"commuter_rail",2004
167,"Varedo",9.23930245792297,45.5410920491613,"commuter_rail",2004
168,"Bovisio Masciago-Mombello",9.27299512266049,45.5776869399401,"commuter_rail",2004
169,"Bovisio Masciago-Mombello",8.95816434547325,45.4044505095546,"commuter_rail",2004
170,"Rho",9.22346908011198,45.4595001647552,"commuter_rail",1858
171,"Magenta",8.86277149226748,45.3136950893601,"commuter_rail",2004
172,"Milano Affori",9.41920836889909,45.5019497608108,"commuter_rail",2004
173,"Milano Affori",8.77851870037398,45.2794741613653,"commuter_rail",2004
174,"Paderno Dugnano",9.23915978037738,45.4335898948872,"commuter_rail",2004
175,"Paderno Dugnano",9.16071040013588,45.4862695131465,"commuter_rail",2004
176,"Cesano Maderno",9.2991388880055,45.4807119019026,"commuter_rail",2011
177,"Cesano Maderno",9.32858292975257,45.4857788399366,"commuter_rail",2011
178,"Milano Nord Domodossola-Fiera",9.45657153814898,45.5085148023252,"commuter_rail",2003
179,"Milano Nord Domodossola-Fiera",9.37612676165159,45.494175395775,"commuter_rail",2003
180,"Milano Certosa",9.51211685285472,45.514548931378,"commuter_rail",1858
181,"Milano Certosa",8.99559478327558,45.5252680203948,"commuter_rail",1858
182,"Corbetta-Santo Stefano Ticino",9.58839034954192,45.5150026918238,"commuter_rail",2004
183,"Ceriano Laghetto-Solaro",8.94601059968409,45.5527423665113,"commuter_rail",2012
184,"Trezzano sul Naviglio",8.92643789372718,45.5694148713,"commuter_rail",1987
185,"Corsico",8.91065337122313,45.5937262847187,"commuter_rail",2009
186,"Abbiategrasso",8.86478659152644,45.6162996477066,"commuter_rail",1870
187,"Mortara",8.7983668678992,45.6599718918648,"commuter_rail",1854
188,"Milano Dateo",8.8035507482837,45.6982456295929,"commuter_rail",2002
189,"Milano Lancetti",8.80632369852771,45.7232619507729,"commuter_rail",1997
190,"Milano Greco Pirelli",8.81033919736993,45.7452593486007,"commuter_rail",1914
191,"Milano Porta Romana",8.82488636101772,45.7785848167871,"commuter_rail",1931
192,"Lissone-Muggiò",8.83313984767679,45.8162207681485,"commuter_rail",1882
193,"Cesano Maderno",9.14531048452133,45.5192112735661,"commuter_rail",2011
194,"Ceriano Laghetto Groane",9.13264804741826,45.5331628459272,"commuter_rail",2012
195,"Desio",9.1224812448061,45.5433329460824,"commuter_rail",1849
196,"Seregno",9.11219549577208,45.5528100666638,"commuter_rail",1849
197,"Milano Romolo",9.39357511662067,45.8563567211556,"commuter_rail",2006
198,"Seveso-Baruccana",9.09110609928533,45.5712306217639,"commuter_rail",2012
199,"Cesano Maderno Groane",9.08019907086106,45.5800249704273,"commuter_rail",2013
200,"Saronno Sud",9.06653016905599,45.5909516515566,"commuter_rail",1991
201,"Saronno",9.42220507418824,45.7557412451719,"commuter_rail",1879
202,"Cesano Boscone",9.05815327626723,45.5982294454275,"commuter_rail",2009
203,"Milano Villapizzone",9.04521125844022,45.6123444897026,"commuter_rail",2002
204,"Gaggiano",9.15917629904538,45.5027137924313,"commuter_rail",1870
205,"Corsico",9.04371038339758,45.524062055143,"commuter_rail",1870
206,"Trecella",9.08801848168213,45.5211259734544,"commuter_rail",1920
207,"Milano San Cristoforo",9.1357884880583,45.5063934126817,"commuter_rail",1931
208,"Milano Certosa",9.40382425083413,45.7291778404589,"commuter_rail",1858
209,"Milano Porta Genova",9.27031792020992,45.4045011940504,"commuter_rail",1870
210,"Milano Porta Garibaldi Passante",9.28631865069585,45.3913622767734,"commuter_rail",1997
211,"Milano Repubblica",9.3192666212974,45.356423056876,"commuter_rail",1997
212,"Milano Porta Venezia",9.38706249636255,45.6788079300698,"commuter_rail",1997
213,"Milano Forlanini",9.36113257840276,45.3379040400879,"commuter_rail",2015
214,"Milano Lambrate",9.40216423839595,45.326449755962,"commuter_rail",1931
215,"Sesto San Giovanni",9.49763375624235,45.3090721679168,"commuter_rail",1968
216,"Monza",9.20443910901903,45.4863004208718,"commuter_rail",1840
217,"Albairate-Vermezzo",8.7112439040651,45.6271801951974,"commuter_rail",2009
218,"Milano Porta Vittoria",8.720900932858,45.6503460381777,"commuter_rail",2004
219,"Vigevano",8.75511347584498,45.6085811568059,"commuter_rail",1854
220,"Melzo",8.85128704412796,45.606074207665,"commuter_rail",1846
221,"Milano Nord Bovisa-Politecnico",9.39718838889348,45.6955829216201,"commuter_rail",1879
222,"Parona Lomellina",9.41194809273202,45.8307708024122,"commuter_rail",1900
223,"Milano Rogoredo",9.42714873333657,45.8014872776047,"commuter_rail",1870
224,"Milano Nord Domodossola-Fiera",9.37523469829936,45.653237356076,"commuter_rail",2003
225,"Milano Nord Bullona",9.27326136799599,45.577612868012,"commuter_rail",1929
226,"Segrate",9.3231266011644,45.6238053652018,"commuter_rail",2002
227,"Pioltello-Limito",9.23944182649765,45.5410219680146,"commuter_rail",1846
228,"Pozzuolo Martesana",9.21456715029441,45.5130856232043,"commuter_rail",2009
229,"Vignate",9.18564646317617,45.4861418707326,"commuter_rail",1889
230,"Cassano d'Adda",9.2531938069979,45.4184846904765,"commuter_rail",1846
231,"Vanzago-Pogliano",9.16751297755826,45.5213352873314,"commuter_rail",1868
232,"Treviglio",9.14038336477014,45.6483151573584,"commuter_rail",1878
233,"Rho",8.62553862768394,45.450724854767,"commuter_rail",1858
234,"Rho Fiera",8.94729134771575,45.4910719225518,"commuter_rail",2008
235,"Parabiago",9.17149880558026,45.5289489265286,"commuter_rail",1860
236,"Canegrate",9.17263087651841,45.5322034255288,"commuter_rail",1890
237,"Legnano",9.17378354248211,45.5453941454642,"commuter_rail",1860
238,"Busto Arsizio",9.17367430176253,45.5480387306062,"commuter_rail",0
239,"Gallarate",9.1419373856267,45.6262007555501,"commuter_rail",1868
240,"Cavaria-Oggiona-Jerago",9.17533564620496,45.4685055498631,"commuter_rail",1876
241,"Albizzate-Solbiate Arno",8.73947553027466,45.4285938967242,"commuter_rail",1865
242,"Castronno",9.00278134113492,45.5100660369086,"commuter_rail",1876
243,"Gazzada-Schianno-Morazzone",9.17349246640435,45.5420140428011,"commuter_rail",1865
244,"Varese",9.15644916971385,45.5810248818389,"commuter_rail",1865
245,"Milano Nord Quarto Oggiaro",9.15317362957077,45.5955669948119,"commuter_rail",1990
246,"Novate Milanese",9.14148160284654,45.6119817133223,"commuter_rail",1992
247,"Bollate Centro",8.88070687826399,45.4682829150682,"commuter_rail",1879
248,"Bollate Nord",9.14179746203203,45.6315498391783,"commuter_rail",1991
249,"Lecco",9.16223567569662,45.4808719686525,"commuter_rail",1863
250,"Garbagnate Parco delle Groane",9.16570890280667,45.5184504709967,"commuter_rail",1879
251,"Garbagnate Milanese",9.16116933625881,45.5649347132099,"commuter_rail",1879
252,"Cesate",8.91798715379988,45.4810212158349,"commuter_rail",1988
253,"Airuno",9.23651035078714,45.4647015067532,"commuter_rail",1873
