"nodeID","nodeLabel","longitud","latitud","mode","year"
1,"Парк Культуры",37.5946018,55.7358928,"heavy_rail",1935
2,"Охотный Ряд",37.6039193,55.7453931,"heavy_rail",1935
3,"Библиотека имени Ленина",37.6101565,55.7510821,"heavy_rail",1935
4,"Кропоткинская",37.616631,55.7576803,"heavy_rail",1935
5,"Фрунзенская",37.4339056,55.5862675,"heavy_rail",1957
6,"Спортивная",37.4077408,55.601425,"heavy_rail",1957
7,"Комсомольская",37.5842083,55.776055,"heavy_rail",1935
8,"Красные Ворота",37.6046522,55.7798905,"heavy_rail",1935
9,"Чистые пруды",37.659173,55.7572646,"heavy_rail",1935
10,"Лубянка",37.6487377,55.6550308,"heavy_rail",1935
11,"Красносельская",37.5643211,55.7233019,"heavy_rail",1935
12,"Преображенская площадь",37.5786323,55.7268079,"heavy_rail",1965
13,"Черкизовская",37.6566339,55.635756,"heavy_rail",1990
14,"Бульвар Рокоссовского",37.6693416,55.6215111,"heavy_rail",1990
15,"Сокольники",37.6946457,55.6134413,"heavy_rail",1935
16,"Воробьёвы горы",37.7186192,55.610897,"heavy_rail",1959
17,"Университет",37.7444128,55.6137516,"heavy_rail",1959
18,"Коммунарка",37.5469226500088,55.6581552279725,"heavy_rail",2019
19,"Ольховая",37.4648627,55.6971358,"heavy_rail",2019
20,"Прокшино",37.4850862,55.6882357,"heavy_rail",2019
21,"Филатов Луг",37.5037385,55.6784405,"heavy_rail",2019
22,"Саларьево",37.5217388,55.6699849,"heavy_rail",2016
23,"Румянцево",37.5394151,55.658779,"heavy_rail",2016
24,"Тропарёво",37.5734892,55.6557203,"heavy_rail",2014
25,"Юго-Западная",37.6391272,55.7657309,"heavy_rail",1963
26,"Проспект Вернадского",37.6278738,55.7597439,"heavy_rail",1963
27,"Павелецкая",37.656186,55.7751439,"heavy_rail",1950
28,"Добрынинская",37.6491032,55.768927,"heavy_rail",1950
29,"Октябрьская",37.6678227,55.7802448,"heavy_rail",1950
30,"Парк Культуры",37.7345324,55.8147011,"heavy_rail",1950
31,"Киевская",37.6803348,55.788768,"heavy_rail",1954
32,"Краснопресненская",37.4726863,55.6458508,"heavy_rail",1954
33,"Выставочная",37.4833174,55.6636376,"heavy_rail",2005
34,"Киевская",37.506158,55.6771684,"heavy_rail",1937
35,"Смоленская",37.4670320798801,55.7360392639957,"heavy_rail",1935
36,"Белорусская",37.4832972832124,55.7395498754927,"heavy_rail",1952
37,"Новослободская",37.4976462089056,55.7437658045411,"heavy_rail",1952
38,"Проспект Мира",37.5149703697458,55.746035263534,"heavy_rail",1952
39,"Комсомольская",37.5344180792481,55.7399946209024,"heavy_rail",1952
40,"Курская",37.408242,55.7565916,"heavy_rail",1950
41,"Таганская",37.4596167,55.7480388,"heavy_rail",1950
42,"Международная",37.4459563,55.7288644,"heavy_rail",2006
43,"Арбатская",37.715381,55.7963188,"heavy_rail",1935
44,"Арбатская",37.7451793,55.8044983,"heavy_rail",1935
45,"Арбатская",37.5594418,55.7102705,"heavy_rail",1935
46,"Смоленская",37.5334013,55.6925759,"heavy_rail",1935
47,"Смоленская",37.4031794,55.8037525,"heavy_rail",1935
48,"Киевская",37.3823333,55.8355451,"heavy_rail",1937
49,"Киевская",37.3853715,55.825201,"heavy_rail",1937
50,"Ховрино",37.3546819,55.856561,"heavy_rail",2017
51,"Беломорская",37.3615145,55.8461116,"heavy_rail",2018
52,"Речной вокзал",37.5483422745511,55.7388318589084,"heavy_rail",1964
53,"Водный стадион",37.6113375,55.7304519,"heavy_rail",1964
54,"Войковская",37.4517111,55.7151395,"heavy_rail",1964
55,"Сокол",37.4242915,55.6218771,"heavy_rail",1938
56,"Аэропорт",37.4419275,55.6329054,"heavy_rail",1938
57,"Динамо",37.4681355,55.5605972,"heavy_rail",1938
58,"Белорусская",37.459356,55.5687639,"heavy_rail",1938
59,"Маяковская",37.637893,55.7323416,"heavy_rail",1938
60,"Тверская",37.623698,55.7291473,"heavy_rail",1979
61,"Театральная",37.6095962,55.7298356,"heavy_rail",1938
62,"Новокузнецкая",37.5913315,55.735931,"heavy_rail",1943
63,"Павелецкая",37.565711,55.7447737,"heavy_rail",1943
64,"Автозаводская",37.57752,55.7612506,"heavy_rail",1943
65,"Технопарк",37.5413162,55.7501369,"heavy_rail",2015
66,"Коломенская",37.6007512,55.7519189,"heavy_rail",1969
67,"Каширская",37.5826955,55.7488633,"heavy_rail",1969
68,"Кантемировская",37.5651566,55.7436128,"heavy_rail",1985
69,"Царицыно",37.6317515,55.7795176,"heavy_rail",1985
70,"Орехово",37.6544075,55.7745718,"heavy_rail",1985
71,"Домодедовская",37.6511971,55.7417635,"heavy_rail",1985
72,"Красногвардейская",37.534237,55.7483638,"heavy_rail",1985
73,"Алма-Атинская",37.606096,55.7651201,"heavy_rail",2012
74,"Смоленская",37.5583325,55.789829,"heavy_rail",1953
75,"Площадь Революции",37.5837069,55.7767875,"heavy_rail",1938
76,"Парк Победы",37.6193648,55.7575606,"heavy_rail",2003
77,"Киевская",37.6212821,55.7567584,"heavy_rail",1953
78,"Марксистская",37.6086632,55.7523797,"heavy_rail",1979
79,"Третьяковская",37.606969,55.752187,"heavy_rail",1986
80,"Курская",37.6072316,55.7509817,"heavy_rail",1938
81,"Партизанская",37.4751757,55.8650355,"heavy_rail",1944
82,"Измайловская",37.4806188,55.8788071,"heavy_rail",1961
83,"Александровский сад",37.4763077,55.8550327,"heavy_rail",1935
84,"Александровский сад",37.4868037,55.8401018,"heavy_rail",1935
85,"Александровский сад",37.498134,55.8190761,"heavy_rail",1935
86,"Бауманская",37.5151597,55.8052938,"heavy_rail",1944
87,"Электрозаводская",37.5331956,55.8004343,"heavy_rail",1944
88,"Семёновская",37.595186,55.7702235,"heavy_rail",1944
89,"Арбатская",37.653495,55.7412421,"heavy_rail",1953
90,"Славянский бульвар",37.6274935,55.7410187,"heavy_rail",2008
91,"Первомайская",37.617338,55.7382183,"heavy_rail",1961
92,"Щёлковская",37.6248983,55.7281831,"heavy_rail",1963
93,"Первомайская",37.6293683,55.741418,"heavy_rail",1954
94,"Молодёжная",37.6379353,55.7305498,"heavy_rail",1965
95,"Молодёжная",37.6578758,55.7073457,"heavy_rail",1965
96,"Пионерская",37.6640319,55.6784827,"heavy_rail",1961
97,"Филёвский парк",37.6833797,55.7470794,"heavy_rail",1961
98,"Багратионовская",37.7201138,55.7524574,"heavy_rail",1961
99,"Фили",37.7493309,55.757469,"heavy_rail",1959
100,"Кутузовская",37.7659632,55.6327314,"heavy_rail",1958
101,"Кунцевская",37.6564499,55.6357042,"heavy_rail",1965
102,"Кунцевская",37.6691549,55.6214594,"heavy_rail",2008
103,"Крылатское",37.6944808,55.6133713,"heavy_rail",1989
104,"Крылатское",37.7186956,55.610786,"heavy_rail",1989
105,"Строгино",37.5181214,55.7364421,"heavy_rail",2008
106,"Волоколамская",37.5648555,55.7442702,"heavy_rail",2009
107,"Мякинино",37.5823176,55.7475903,"heavy_rail",2009
108,"Пятницкое шоссе",37.6582343,55.7581354,"heavy_rail",2012
109,"Митино",37.7507018,55.7885881,"heavy_rail",2009
110,"Терехово",37.7816479,55.7878146,"heavy_rail",2021
111,"Кунцевская",37.6803999,55.7731186,"heavy_rail",2021
112,"Давыдково",37.7036575,55.7818064,"heavy_rail",2021
113,"Студенческая",37.7211967,55.7834165,"heavy_rail",1958
114,"Ленинский проспект",37.4707528,55.7296548,"heavy_rail",1962
115,"Шаболовская",37.7992909,55.7946965,"heavy_rail",1980
116,"Октябрьская",37.7985369,55.809344,"heavy_rail",1962
117,"Третьяковская",37.7745437743612,55.7896321584715,"heavy_rail",1970
118,"Академическая",37.4169162,55.7408433,"heavy_rail",1962
119,"Профсоюзная",37.4459574,55.7308185,"heavy_rail",1962
120,"Новые Черёмушки",37.4460134,55.7306986,"heavy_rail",1962
121,"Калужская",37.5862815,55.7075855,"heavy_rail",1974
122,"Беляево",37.6271688,55.7408133,"heavy_rail",1974
123,"Калужская",37.5736027,55.6877776,"heavy_rail",1964
124,"Ясенево",37.5628323,55.6777846,"heavy_rail",1990
125,"Новоясеневская",37.5546229,55.6701069,"heavy_rail",1990
126,"Тёплый Стан",37.5407497,55.6571977,"heavy_rail",1987
127,"Коньково",37.5257264,55.6426486,"heavy_rail",1987
128,"Зюзино",37.6520806,55.7405225,"heavy_rail",2021
129,"Воронцовская",37.5334496,55.6063752,"heavy_rail",2021
130,"Новаторская",37.5541944,55.6010263,"heavy_rail",2021
131,"Проспект Вернадского",37.50835,55.6188452,"heavy_rail",2021
132,"Мичуринский проспект",37.5190724,55.6330876,"heavy_rail",2021
133,"Аминьевская",37.6376486,55.766431,"heavy_rail",2021
134,"Проспект Мира",37.6337148,55.7555347,"heavy_rail",1958
135,"Алексеевская",37.6334116,55.7555854,"heavy_rail",1958
136,"ВДНХ",37.626269,55.7608298,"heavy_rail",1958
137,"Тургеневская",37.607462,55.76551,"heavy_rail",1971
138,"Сухаревская",37.5676919,55.8827797,"heavy_rail",1971
139,"Ботанический сад",37.5532841,55.8973293,"heavy_rail",1978
140,"Свиблово",37.5124081,55.9526572,"heavy_rail",1978
141,"Бабушкинская",37.5045423,55.9709611,"heavy_rail",1978
142,"Медведково",37.5746737,55.8347074,"heavy_rail",1978
143,"Китай-город",37.576495,55.8171438,"heavy_rail",1970
144,"Планерная",37.5820628,55.8065817,"heavy_rail",1975
145,"Сходненская",37.5886757,55.79288,"heavy_rail",1975
146,"Тушинская",37.6012545,55.7811142,"heavy_rail",1975
147,"Спартак",37.6180488,55.7708466,"heavy_rail",2014
148,"Щукинская",37.5749619,55.8346566,"heavy_rail",1975
149,"Октябрьское Поле",37.5777883,55.8168128,"heavy_rail",1972
150,"Полежаевская",37.5730537,55.8660013,"heavy_rail",1972
151,"Беговая",37.5393921,55.9033963,"heavy_rail",1972
152,"Улица 1905 года",37.5280298,55.9243063,"heavy_rail",1972
153,"Баррикадная",37.5200245,55.9401337,"heavy_rail",1972
154,"Пушкинская",37.4989047,55.9837371,"heavy_rail",1975
155,"Кузнецкий Мост",37.4849022,56.0135152,"heavy_rail",1975
156,"Китай-город",37.5507674,55.7732251,"heavy_rail",1970
157,"Таганская",37.5741989,55.8475153,"heavy_rail",1966
158,"Пролетарская",37.5891963,55.7955943,"heavy_rail",1966
159,"Волгоградский проспект",37.6322073,55.7808533,"heavy_rail",1966
160,"Текстильщики",37.6390974,55.8087575,"heavy_rail",1966
161,"Кузьминки",37.6416093,55.8211104,"heavy_rail",1966
162,"Рязанский проспект",37.6313601,55.7733081,"heavy_rail",1966
163,"Выхино",37.6528009,55.8550752,"heavy_rail",1966
164,"Лермонтовский проспект",37.8562497,55.6853033,"heavy_rail",2013
165,"Жулебино",37.8583488,55.6744177,"heavy_rail",2013
166,"Котельники",37.7865341,55.7511407,"heavy_rail",2015
167,"Площадь Ильича",37.6091913,55.7647628,"heavy_rail",1979
168,"Авиамоторная",37.6196582,55.7691777,"heavy_rail",1979
169,"Шоссе Энтузиастов",37.6152279,55.7814323,"heavy_rail",1979
170,"Перово",37.638398,55.8448651,"heavy_rail",1979
171,"Новогиреево",37.6642841,55.8696096,"heavy_rail",1979
172,"Новокосино",37.6616422,55.8871737,"heavy_rail",2012
173,"Мнёвники",37.4358557,55.8183028,"heavy_rail",2021
174,"Народное ополчение",37.4938635,55.7934031,"heavy_rail",2021
175,"Раменки",37.4647692,55.8085056,"heavy_rail",2017
176,"Ломоносовский проспект",37.4370858,55.8265216,"heavy_rail",2017
177,"Минская",37.4398794,55.8504892,"heavy_rail",2017
178,"Парк Победы",37.4366265,55.8606642,"heavy_rail",2014
179,"Деловой центр",37.3146629,55.6825688,"heavy_rail",2014
180,"Мичуринский проспект",37.375323,55.7158871,"heavy_rail",2018
181,"Озёрная",37.3974472,55.7237084,"heavy_rail",2018
182,"Говорово",37.4198194,55.726853,"heavy_rail",2018
183,"Солнцево",37.6658738,55.7319149,"heavy_rail",2018
184,"Боровское шоссе",37.5614576,55.7648465,"heavy_rail",2018
185,"Новопеределкино",37.5466664,55.7737729,"heavy_rail",2018
186,"Рассказовка",37.5192547,55.7776033,"heavy_rail",2018
187,"Битцевский парк",37.5786921,55.7613278,"heavy_rail",2014
188,"Лесопарковая",37.6677576,55.7332037,"heavy_rail",2014
189,"Улица Старокачаловская",37.2826795,55.6724939,"heavy_rail",2003
190,"Улица Скобелевская",37.342676,55.7000503,"heavy_rail",2003
191,"Бульвар Адмирала Ушакова",37.450403,55.7268789,"heavy_rail",2003
192,"Улица Горчакова",37.4723265,55.7302498,"heavy_rail",2003
193,"Бунинская аллея",37.5145534,55.7439316,"heavy_rail",2003
194,"Бульвар Дмитрия Донского",37.5316976,55.7541627,"heavy_rail",2002
195,"Алтуфьево",37.5806825,55.7771647,"heavy_rail",1994
196,"Бибирево",37.6869238,55.7252832,"heavy_rail",1992
197,"Отрадное",37.8179402,55.7156579,"heavy_rail",1991
198,"Владыкино",37.7932365,55.7169662,"heavy_rail",1991
199,"Петровско-Разумовская",37.7658078,55.7056605,"heavy_rail",1991
200,"Тимирязевская",37.5190997,55.7767572,"heavy_rail",1991
201,"Дмитровская",37.7315049,55.7088715,"heavy_rail",1991
202,"Савёловская",37.8520575,55.7016775,"heavy_rail",1988
203,"Менделеевская",37.6848565,55.7074519,"heavy_rail",1988
204,"Цветной бульвар",37.8167147,55.751714,"heavy_rail",1988
205,"Чеховская",37.8638087,55.7450231,"heavy_rail",1988
206,"Боровицкая",37.4986352,55.6975252,"heavy_rail",1986
207,"Полянка",37.5163056,55.7070952,"heavy_rail",1986
208,"Серпуховская",37.4969302,55.724813,"heavy_rail",1983
209,"Тульская",37.4829224,55.6892737,"heavy_rail",1983
210,"Нагатинская",37.4487958,55.6704456,"heavy_rail",1983
211,"Нагорная",37.417309,55.659515,"heavy_rail",1983
212,"Нахимовский проспект",37.3913251,55.6496656,"heavy_rail",1983
213,"Севастопольская",37.5166329,55.7363168,"heavy_rail",1983
214,"Чертановская",37.5392553,55.7490422,"heavy_rail",1983
215,"Южная",37.3704849,55.6476932,"heavy_rail",1983
216,"Пражская",37.355182,55.6395765,"heavy_rail",1985
217,"Улица Академика Янгеля",37.3351169,55.6339631,"heavy_rail",2000
218,"Аннино",37.5566,55.6001983,"heavy_rail",2001
219,"Зябликово",37.5769155,55.582147,"heavy_rail",2011
220,"Шипиловская",37.5769024,55.5688933,"heavy_rail",2011
221,"Борисово",37.6005635,55.5949838,"heavy_rail",2011
222,"Марьино",37.5967047,55.5825076,"heavy_rail",1996
223,"Братиславская",37.5769794,55.5692176,"heavy_rail",1996
224,"Люблино",37.5406106,55.7491743,"heavy_rail",1996
225,"Волжская",37.5238957,55.7571094,"heavy_rail",1995
226,"Печатники",37.4857286,55.7758019,"heavy_rail",1995
227,"Кожуховская",37.4712833,55.7612012,"heavy_rail",1995
228,"Дубровка",37.6047409,55.8631559,"heavy_rail",1999
229,"Крестьянская Застава",37.5902574,55.8475312,"heavy_rail",1995
230,"Римская",37.6229907,55.7087296,"heavy_rail",1995
231,"Чкаловская",37.6057194,55.6626215,"heavy_rail",1995
232,"Сретенский бульвар",37.5985435,55.6523969,"heavy_rail",2007
233,"Трубная",37.5739266,55.846381,"heavy_rail",2007
234,"Достоевская",37.5611955,55.8563826,"heavy_rail",2010
235,"Марьина Роща",37.5472415,55.8668682,"heavy_rail",2010
236,"Бутырская",37.5546605,55.5480623,"heavy_rail",2016
237,"Фонвизинская",37.5432646,55.5453915,"heavy_rail",2016
238,"Петровско-Разумовская",37.5307652,55.5416468,"heavy_rail",2016
239,"Окружная",37.5165801,55.5381025,"heavy_rail",2018
240,"Верхние Лихоборы",37.5874782,55.8984934,"heavy_rail",2018
241,"Селигерская",37.6030638,55.8842108,"heavy_rail",2018
242,"Хорошёвская",37.6225983,55.6828473,"heavy_rail",2018
243,"ЦСКА",37.6103129,55.6719413,"heavy_rail",2018
244,"Петровский парк",37.6067501,55.6405009,"heavy_rail",2018
245,"Савёловская",37.5331136,55.7866083,"heavy_rail",2018
246,"Деловой Центр",37.60933,55.6222474,"heavy_rail",2018
247,"Шелепиха",37.6046262,55.6123662,"heavy_rail",2018
248,"Каховская",37.7532557,55.6909179,"heavy_rail",2021
249,"Тимирязевская",37.7270014,55.6935422,"heavy_rail",2004
250,"Улица Милашенкова",37.5984487,55.6528665,"heavy_rail",2004
251,"Телецентр",37.6667748,55.8396088,"heavy_rail",2004
252,"Улица Академика Королёва",37.70239,55.8292329,"heavy_rail",2004
253,"Выставочный центр",37.553214,55.8055353,"heavy_rail",2004
254,"Улица Сергея Эйзенштейна",37.7452807,55.6122417,"heavy_rail",2004
255,"Ростокино",37.7437418,55.6210329,"heavy_rail",2016
256,"Белокаменная",37.7438454,55.6332825,"heavy_rail",2016
257,"Бульвар Рокоссовского",37.7432478,55.6500306,"heavy_rail",2016
258,"Ботанический сад",37.7507082,55.6596942,"heavy_rail",2016
259,"Измайлово",37.7620795,55.6757108,"heavy_rail",2016
260,"Локомотив",37.6834158,55.7464275,"heavy_rail",2016
261,"Соколиная Гора",37.6567571,55.756964,"heavy_rail",2016
262,"Шоссе Энтузиастов",37.6401161,55.7670347,"heavy_rail",2016
263,"Андроновка",37.6164831,55.795519,"heavy_rail",2016
264,"Нижегородская",37.6026513,55.813447,"heavy_rail",2016
265,"Новохохловская",37.5873666,55.8232471,"heavy_rail",2016
266,"Угрешская",37.556998,55.7919632,"heavy_rail",2016
267,"Дубровка",37.5863961,55.7924454,"heavy_rail",2016
268,"Автозаводская",37.5788746528826,55.8190022153105,"heavy_rail",2016
269,"ЗИЛ",37.5912345605475,55.8218771260172,"heavy_rail",2016
270,"Верхние Котлы",37.6088938958154,55.8217789467306,"heavy_rail",2016
271,"Крымская",37.6269376112863,55.8218111538263,"heavy_rail",2016
272,"Площадь Гагарина",37.6384087928523,55.8240441515287,"heavy_rail",2016
273,"Лужники",37.6448631041302,55.8292199231783,"heavy_rail",2016
274,"Кутузовская",37.7372994,55.8170129,"heavy_rail",2016
275,"Деловой центр",37.5782553,55.8079149,"heavy_rail",2016
276,"Хорошёво",37.5248102,55.8154321,"heavy_rail",2016
277,"Зорге",37.63967,55.8455319,"heavy_rail",2016
278,"Стрешнево",37.4990655,55.7990209,"heavy_rail",2016
279,"Балтийская",37.5257011,55.7573112,"heavy_rail",2016
280,"Коптево",37.6188482,55.6901588,"heavy_rail",2016
281,"Лихоборы",37.6057799,55.6899099,"heavy_rail",2016
282,"Окружная",37.586421,55.7069793,"heavy_rail",2016
283,"Владыкино",37.5341278,55.7399367,"heavy_rail",2016
284,"Косино",37.5321096,55.7475577,"heavy_rail",2019
285,"Котельники",37.5074274,55.777151,"heavy_rail",2019
286,"Лухмановская",37.5044021,55.7884973,"heavy_rail",2019
287,"Некрасовка",37.4870395,55.8137012,"heavy_rail",2019
288,"Юго-Восточная",37.4964797,55.8258363,"heavy_rail",2020
289,"Окская",37.5201861,55.8395754,"heavy_rail",2020
290,"Стахановская",37.5710884,55.8488797,"heavy_rail",2020
291,"Нижегородская",37.5924366,55.847304,"heavy_rail",2020
292,"Авиамоторная",37.4901019,55.8152121,"heavy_rail",2020
293,"Лефортово",37.4602699,55.8111218,"heavy_rail",2020
294,"Электрозаводская",37.7429839,55.7891802,"heavy_rail",2020
295,"Тимирязевская",37.7459602,55.803621,"commuter_rail",2019
296,"Дегунино",37.7449733,55.7713234,"commuter_rail",2019
297,"Бескудниково",37.7459363,55.758902,"commuter_rail",2019
298,"Лианозово",37.7376965,55.7470745,"commuter_rail",2019
299,"Марк",37.7280227,55.7322029,"commuter_rail",2019
300,"Новодачная",37.7169021,55.7242098,"commuter_rail",2019
301,"Долгопрудная",37.6976202,55.7185406,"commuter_rail",2019
302,"Водники",37.6777625,55.7127297,"commuter_rail",2019
303,"Хлебниково",37.6619513,55.7057591,"commuter_rail",2019
304,"Шереметьевская",37.6474798,55.6979255,"commuter_rail",2019
305,"Лобня",37.5599088,55.7210678,"commuter_rail",2019
306,"Одинцово",37.5514841,55.847134,"commuter_rail",2019
307,"Баковка",37.8510242,55.703484,"commuter_rail",2019
308,"Сколково",37.879261,55.7103819,"commuter_rail",2019
309,"Немчиновка",37.4410422,55.826999,"commuter_rail",2019
310,"Сетунь",37.3989033,55.8331298,"commuter_rail",2019
311,"Рабочий посёлок",37.9007567,55.7085575,"commuter_rail",2019
312,"Кунцевская",37.9282334461248,55.7029542792737,"commuter_rail",2019
313,"Славянский бульвар",37.8172637809966,55.7056059978767,"commuter_rail",2019
314,"Фили",37.7826339330158,55.7178546713818,"commuter_rail",2019
315,"Тестовская",37.7517185013471,55.7274050167804,"commuter_rail",2019
316,"Беговая",37.7282863717204,55.7323163394109,"commuter_rail",2019
317,"Гражданская",37.7195479500711,55.7533066084495,"commuter_rail",2019
318,"Дмитровская",37.7068166195199,55.7648864281721,"commuter_rail",2019
319,"Красный Балтиец",37.7027645979279,55.7809208108789,"commuter_rail",2019
320,"Стрешнево",37.3824727,55.8320853,"commuter_rail",2019
321,"Щукинская",37.3614277,55.823386,"commuter_rail",2019
322,"Тушинская",37.303169,55.8147272,"commuter_rail",2019
323,"Трикотажная",37.3395389,55.8148495,"commuter_rail",2019
324,"Волоколамская",37.2485173,55.822735,"commuter_rail",2019
325,"Пенягино",37.2200313,55.8320233,"commuter_rail",2019
326,"Красногорская",37.1849434,55.8415532,"commuter_rail",2019
327,"Павшино",37.6387767,55.7937331,"commuter_rail",2019
328,"Опалиха",37.6515985,55.7764979,"commuter_rail",2019
329,"Нахабино",37.6622378,55.7576037,"commuter_rail",2019
330,"Рижская",37.7026526,55.7336631,"commuter_rail",2019
331,"Каланчёвская",37.7295723,55.7068071,"commuter_rail",2019
332,"Москва-Пассажирская-Курская",37.7337909,55.6852542,"commuter_rail",2019
333,"Калитники",37.689255,55.7451646,"commuter_rail",2019
334,"Текстильщики",37.7127426,55.7250528,"commuter_rail",2019
335,"Люблино",37.7162279,55.6608591,"commuter_rail",2019
336,"Москва-Товарная",37.7280554,55.6742199,"commuter_rail",2019
337,"Новохохловская",37.7316819,55.6807343,"commuter_rail",2019
338,"Перерва",37.7013651,55.6498404,"commuter_rail",2019
339,"Москва-Белорусская",37.6679874,55.6182592,"commuter_rail",2009
340,"Савёловская",37.6900308,55.6412879,"commuter_rail",2008
341,"Депо",37.6115689,55.5712899,"commuter_rail",2019
342,"Люблино-Сортировочное",37.6152877,55.5903818,"commuter_rail",2019
343,"Курьяново",37.6319043,55.6027681,"commuter_rail",2019
344,"Царицыно",37.5705944,55.5413368,"commuter_rail",2019
345,"Москворечье",37.5620703,55.5098572,"commuter_rail",2019
346,"МЦД Битца",37.5554123,55.470436,"commuter_rail",2019
347,"МЦД Красный Строитель",37.5548181,55.4855942,"commuter_rail",2019
348,"Покровское",37.5654151,55.4321171,"commuter_rail",2019
349,"МЦД Бутово",37.4175102,55.964102,"commuter_rail",2019
350,"Щербинка",37.2867817,55.6065817,"commuter_rail",2019
351,"МЦД Силикатная",37.4696642,55.6980283,"commuter_rail",2019
352,"МЦД Остафьево",37.5661062,55.7429681,"commuter_rail",2019
353,"Подольск",37.8970938,55.4150794,"commuter_rail",2019
354,"Аэропорт Шереметьево",37.7727383,55.4407762,"commuter_rail",2008
355,"Окружная",37.6170353,55.6900823,"commuter_rail",2018
356,"Окружная",37.6408166,55.7290823,"commuter_rail",2018
357,"Москва-Белорусская",37.6080683,55.719943,"commuter_rail",2009
358,"Савёловская",37.5979830740354,55.6529808802663,"commuter_rail",2008
359,"Аэропорт Внуково",37.6188257226195,55.6533637720215,"commuter_rail",2005
360,"Аминьевская",37.6756765,55.7192492,"commuter_rail",2021
361,"Москва-Пассажирская-Киевская",37.6644724,55.6936249,"commuter_rail",2005
