"nodeID","nodeLabel","longitud","latitud","mode","year"
1,"Weijianian",104.063587799101,30.6526186039237,"heavy_rail",2018
2,"Shengxian Lake",104.063813876888,30.6453038220878,"heavy_rail",2010
3,"North Railway Station",104.064065050258,30.6358506048902,"heavy_rail",2010
4,"Renmin Road North",104.06436512226,30.6273112076696,"heavy_rail",2010
5,"Wenshu Monastery",104.06490270237,30.6073575129749,"heavy_rail",2010
6,"Luomashi",104.064577348551,30.6178535349407,"heavy_rail",2010
7,"Tianfu Square",104.061259368199,30.5967197077995,"heavy_rail",2010
8,"Jinjiang Hotel",104.061694610105,30.5847855793446,"heavy_rail",2010
9,"Huaxiba",104.061838125114,30.5790175009184,"heavy_rail",2010
10,"Sichuan Gymnasium",104.066289234533,30.5582067419377,"heavy_rail",2010
11,"Nijiaqiao",104.066468100408,30.5491677845615,"heavy_rail",2010
12,"South Railway Station",104.066437608678,30.5394227271735,"heavy_rail",2010
13,"Tongzilin",104.067277623806,30.5285838109817,"heavy_rail",2010
14,"	Hi-Tech Zone",104.067523148207,30.5193994186908,"heavy_rail",2010
15,"Financial City",104.067965709673,30.5054915628466,"heavy_rail",2010
16,"Incubation Park",104.070426983298,30.4668784924024,"heavy_rail",2010
17,"Century City",104.070984753871,30.4446469340771,"heavy_rail",2010
18,"3rd Tianfu Street",104.074999167732,30.4354937762584,"heavy_rail",2015
19,"5th Tianfu Street",104.074710599187,30.4275885512603,"heavy_rail",2015
20,"Huafu Avenue",104.074886508144,30.4216623148083,"heavy_rail",2015
21,"Sihe",104.073861168185,30.4086786344921,"heavy_rail",2015
22,"Huayang",104.069850923491,30.3938815981385,"heavy_rail",2018
23,"Hongshi Park",104.066596476082,30.4819848336637,"heavy_rail",2018
24,"Wuhan Road",104.068311574287,30.4949160151649,"heavy_rail",2018
25,"Tianfu Park",104.074195299123,30.5132464022661,"heavy_rail",2018
26,"Western China Int'l Expo City",104.07899718276,30.5044323799276,"heavy_rail",2018
27,"Guangzhou Road",104.070867489084,30.4569461428788,"heavy_rail",2018
28,"Xinglong Lake",104.063783926237,30.5709644404907,"heavy_rail",2018
29,"Science City",103.973852096513,30.7483059418827,"heavy_rail",2018
30,"Guangfu",103.995501077049,30.7244915822656,"heavy_rail",2018
31,"Haichang Road",103.969769572009,30.7601702668418,"heavy_rail",2018
32,"Guangdu",104.004169004826,30.7234553457009,"heavy_rail",2015
33,"Wugensong",103.976381612909,30.7363026434965,"heavy_rail",2018
34,"Luhu Lake",103.983610103804,30.7283628630271,"heavy_rail",2018
35,"Jincheng Plaza",104.010380097767,30.7086927028548,"heavy_rail",2013
36,"Tianhe Road",104.011723330474,30.7146716976715,"heavy_rail",2013
37,"Baicao Road",104.010282060316,30.6964325491759,"heavy_rail",2013
38,"Baicao Road",104.030780392047,30.6758963095325,"heavy_rail",2013
39,"Jinzhou Road",104.039258048488,30.6679225438889,"heavy_rail",2013
40,"Jinke Road North",104.045454008846,30.6648842362267,"heavy_rail",2013
41,"Yingbin Avenue",104.053989208011,30.6618723611033,"heavy_rail",2013
42,"Baiguolin",104.063736173961,30.6598022643858,"heavy_rail",2012
43,"Chengdu University of TCM & Sichuan Provincial People's Hospital",104.026308815436,30.685589916486,"heavy_rail",2012
44,"Tonghuimen",104.018538549738,30.6905352272048,"heavy_rail",2012
45,"People's Park",104.085187793175,30.6505938132547,"heavy_rail",2012
46,"Tianfu Square",104.092358293405,30.6472513220577,"heavy_rail",2012
47,"East Shuhan Road",104.077727608804,30.6555243410135,"heavy_rail",2012
48,"Yipintianxia",104.105466538205,30.640050875943,"heavy_rail",2012
49,"Yangxi Flyover",104.110739303365,30.63534015106,"heavy_rail",2013
50,"Chadianzi Bus Terminal",104.120484642609,30.6318507388804,"heavy_rail",2012
51,"Xipu",104.138075076619,30.6319676520257,"heavy_rail",2013
52,"Dongmen Bridge",104.149774683974,30.6145367265749,"heavy_rail",2012
53,"Niuwangmiao",104.155067850236,30.6072947687789,"heavy_rail",2012
54,"Niushikou",104.168420453134,30.5994966001807,"heavy_rail",2012
55,"Dongda Road",104.199070385319,30.5948131943115,"heavy_rail",2012
56,"Huiwangling",104.210439283501,30.5901209910077,"heavy_rail",2012
57,"Honghe",104.22286636327,30.5854022084384,"heavy_rail",2012
58,"Chengdu Academy of Governance",104.240870184595,30.5778434578127,"heavy_rail",2012
59,"Lianshanpo",104.256618186192,30.5754055180096,"heavy_rail",2014
60,"Shufang",104.26526858856,30.5630065339192,"heavy_rail",2014
61,"Longping Road",104.145153700251,30.6270458536548,"heavy_rail",2014
62,"Longquanyi",104.192550098644,30.8194010917172,"heavy_rail",2014
63,"Chengyu Flyover",104.183775052475,30.8212677368718,"heavy_rail",2012
64,"Tazishan Park",104.172736320869,30.8230835565968,"heavy_rail",2012
65,"East Chengdu Railway Station",104.156052189602,30.8066480802526,"heavy_rail",2012
66,"Damianpu",104.162559600985,30.8157356077002,"heavy_rail",2014
67,"Jiepai",104.150809539585,30.7998473626758,"heavy_rail",2014
68,"Chunxi Road",104.136518549033,30.7870371240077,"heavy_rail",2012
69,"Chengdu Medical College",104.122984886669,30.7727354784451,"heavy_rail",2018
70,"Southwest Petroleum University",104.118922957564,30.7657356459089,"heavy_rail",2018
71,"Clock Tower",104.111638894361,30.7470527742945,"heavy_rail",2018
72,"Tuanjiexinqu",104.10545732807,30.727791910247,"heavy_rail",2018
73,"Jinshuihe",104.100542966619,30.7158054100172,"heavy_rail",2018
74,"Sanhechang",104.094182566618,30.7049694715831,"heavy_rail",2018
75,"Jinhua Temple East Road",104.09305454583,30.6913557226431,"heavy_rail",2018
76,"Botanical Garden",104.090949241275,30.6973968932013,"heavy_rail",2018
77,"Chengdu Junqu General Hospital",104.08975076658,30.681532185963,"heavy_rail",2016
78,"Panda Avenue",104.088714025938,30.6744040494803,"heavy_rail",2016
79,"Zhaojuesi Road South",104.081964825021,30.6640650027713,"heavy_rail",2016
80,"Lijiatuo",104.07337579396,30.6401610515208,"heavy_rail",2016
81,"Simaqiao",104.072720750954,30.6458047217714,"heavy_rail",2016
82,"Qianfeng Road",104.075753757509,30.6548775356083,"heavy_rail",2016
83,"Chengdu Second People's Hospital",104.063217752654,30.6358419218477,"heavy_rail",2016
84,"Moziqiao",104.049310468829,30.6370629595485,"heavy_rail",2016
85,"Xinnanmen",104.040305784529,30.6421103197818,"heavy_rail",2016
86,"Chunxi Road",104.026985445291,30.6368412349075,"heavy_rail",2016
87,"Sichuan Gymnasium",104.019524481692,30.628153000876,"heavy_rail",2016
88,"Yiguanmiao",104.00403214293,30.625468591908,"heavy_rail",2016
89,"Gaoshengqiao",103.982026547115,30.6254070000432,"heavy_rail",2016
90,"Hongpailou",103.932719058186,30.5831821243818,"heavy_rail",2016
91,"Taipingyuan",103.934740676406,30.5939237860392,"heavy_rail",2016
92,"Chuan-Zang Flyover",103.941038216086,30.6068101493516,"heavy_rail",2018
93,"Wuqing South Road",103.966330129936,30.6182353308345,"heavy_rail",2018
94,"Hangdu Street",103.990963598328,30.629570056011,"heavy_rail",2018
95,"Shuangliu Square",103.918558731158,30.5679944590209,"heavy_rail",2018
96,"Sanliba",103.912340837979,30.5565951992734,"heavy_rail",2018
97,"Shuangliu West Station",103.91554164405,30.5459793492217,"heavy_rail",2018
98,"Dongsheng",103.923239599183,30.5742864754501,"heavy_rail",2018
99,"Yingchunqiao",103.81541369103,30.6774470410107,"heavy_rail",2018
100,"Longqiao Road",103.829122871361,30.6836626084843,"heavy_rail",2018
101,"Shuangfengqiao",103.840879601075,30.6888404130784,"heavy_rail",2018
102,"Hongxing Bridge",103.850042416304,30.692174203928,"heavy_rail",2016
103,"Machao West Road",103.859228355179,30.687174305622,"heavy_rail",2018
104,"Chengdu Zoo",103.871725606503,30.6815840197762,"heavy_rail",2016
105,"Wuhou Flyover",103.887365660513,30.6803269076412,"heavy_rail",2018
106,"Wansheng",103.911992940409,30.6800891522415,"heavy_rail",2017
107,"Yangliuhe",103.92021863763,30.6768237688169,"heavy_rail",2017
108,"Fengxihe",103.942875540613,30.6720998006783,"heavy_rail",2017
109,"Nanxun Avenue",103.962078361087,30.6759723424014,"heavy_rail",2017
110,"Guanghua Park",103.973413243517,30.6860819034068,"heavy_rail",2017
111,"Yongquan",103.996343599178,30.6790527718391,"heavy_rail",2017
112,"Fenghuang Street",104.007382371673,30.674675755743,"heavy_rail",2017
113,"Machangba",104.019238449962,30.6726310894009,"heavy_rail",2017
114,"Intangible Cultural Heritage Park",104.02789519904,30.6711988107086,"heavy_rail",2015
115,"Caiqiao",104.039108538146,30.6679878178396,"heavy_rail",2015
116,"Zhongba",104.047696787433,30.6678177500211,"heavy_rail",2015
117,"Qingjiang Road West",104.062218544891,30.6693726646528,"heavy_rail",2015
118,"Culture Palace",104.07522669413,30.6665529826522,"heavy_rail",2015
119,"Southwestern University of Finance and Economics",104.082433736365,30.6627220733025,"heavy_rail",2015
120,"	Chengdu University of TCM & Sichuan Provincial People's Hospital",104.110858245669,30.6492899900125,"heavy_rail",2015
121,"Kuanzhaixiangzi Alleys",104.117551117166,30.6461416266543,"heavy_rail",2015
122,"Luomashi",104.136754382485,30.651229076466,"heavy_rail",2015
123,"Shuangqiao Road",104.161778469311,30.6493722152186,"heavy_rail",2015
124,"Wannianchang",104.169930860063,30.6484062885922,"heavy_rail",2015
125,"Huaishudian",104.179032138874,30.6492070606715,"heavy_rail",2017
126,"Lailong",104.21802998043,30.6498721364743,"heavy_rail",2017
127,"Shiling",104.096402265272,30.6560296145261,"heavy_rail",2017
128,"Chengdu University",104.194274450425,30.6507843857225,"heavy_rail",2017
129,"Xihe",104.095912013153,30.82750559475,"heavy_rail",2017
130,"Yushuang Road",104.091865316553,30.8178675811011,"heavy_rail",2015
131,"Chengdu Second People's Hospital",104.088517985792,30.8107306006765,"heavy_rail",2015
132,"Taisheng Road South",104.08651684648,30.7933979576835,"heavy_rail",2015
133,"Chengdu West Railway Station",104.085862289498,30.7793568849493,"heavy_rail",2015
134,"Mingshuwangling",104.079996009418,30.7740651364245,"heavy_rail",2017
135,"Huagui Road",104.07160882156,30.7739796101106,"heavy_rail",2019
136,"Liaojiawan",104.06240320921,30.7739383562986,"heavy_rail",2019
137,"Beibu Shopping Mall",104.057207697204,30.763115704863,"heavy_rail",2019
138,"Xingfuqiao",104.057278298104,30.7553463539191,"heavy_rail",2019
139,"Jiudaoyan",104.055808143905,30.7327129921216,"heavy_rail",2019
140,"Dujianian",104.056037893551,30.7231474012625,"heavy_rail",2019
141,"Dafeng",104.057649103411,30.7162699245501,"heavy_rail",2019
142,"Shixi Park",104.056662805409,30.7446787983569,"heavy_rail",2019
143,"Huanghuayuan",104.063158344861,30.7079418154462,"heavy_rail",2019
144,"Dongzikou",104.063572319627,30.6961691259392,"heavy_rail",2019
145,"Funing Road",104.046666393834,30.6861303933897,"heavy_rail",2019
146,"Wukuaishi",104.055192745347,30.6880089938853,"heavy_rail",2019
147,"Saiyuntai",104.03817423539,30.6688401285549,"heavy_rail",2019
148,"2nd Beizhan Road West",104.039368822039,30.6795290669205,"heavy_rail",2019
149,"Huapaifang",104.038625149504,30.6534146649719,"heavy_rail",2019
150,"Chengdu University of TCM & Sichuan Provincial People's Hospital",104.038338054347,30.661731167472,"heavy_rail",2019
151,"Qingyang Taoist Temple",104.039441629503,30.6418764242289,"heavy_rail",2019
152,"Provincial Orthopaedics Hospital",104.035487149903,30.6305903771464,"heavy_rail",2019
153,"Gaoshengqiao",104.037369684042,30.6232123161132,"heavy_rail",2019
154,"Keyuan",104.045632232058,30.6128177854481,"heavy_rail",2019
155,"Jiuxing Avenue",104.048425715512,30.5980922178241,"heavy_rail",2019
156,"Shenxianshu",104.048011507675,30.5918110320428,"heavy_rail",2019
157,"Shiyang Flyover",104.047736747174,30.5855311148998,"heavy_rail",2019
158,"Chengdu First People's Hospital",104.047872536423,30.5758933318394,"heavy_rail",2019
159,"Jiaozi Avenue",104.043564311725,30.5656227993595,"heavy_rail",2019
160,"Jincheng Avenue",104.043718018706,30.551984394582,"heavy_rail",2019
161,"Jincheng Lake",104.043888627804,30.54281612585,"heavy_rail",2019
162,"Dayuan",104.041152196857,30.5261837159003,"heavy_rail",2019
163,"Minle",104.037534410944,30.5157141487551,"heavy_rail",2019
164,"Qilong",104.033033233188,30.5013972660749,"heavy_rail",2019
165,"The Police College",104.030811503955,30.4912379390637,"heavy_rail",2019
166,"Erjiang Temple",104.025304034193,30.4739255293841,"heavy_rail",2019
167,"Nanhu Flyover",104.017390607938,30.4601573619099,"heavy_rail",2019
168,"Fuqin",104.010066419122,30.4471187715617,"heavy_rail",2019
169,"Xibeiqiao",103.875263172081,30.8105566856512,"heavy_rail",2019
170,"Lujiaqiao",103.884508835096,30.8035017928327,"heavy_rail",2019
171,"Baishuichang",103.892681441654,30.7985872055016,"heavy_rail",2019
172,"Yixin Lake",103.902298110128,30.7933205709118,"heavy_rail",2019
173,"Longma Road",103.912161463747,30.7873410806061,"heavy_rail",2019
174,"Huilong",103.920574796918,30.7806354689076,"heavy_rail",2019
175,"Zitonggong",103.967677295359,30.7604660696543,"heavy_rail",2020
176,"Xingsheng",103.952326239534,30.7566081985642,"heavy_rail",2020
177,"Liangjia Alley",103.988673548682,30.7531238837801,"heavy_rail",2020
178,"Zhangjiasi",104.040773843041,30.7057276001117,"heavy_rail",2020
179,"Luxiao",104.002651217616,30.7390010639861,"heavy_rail",2020
180,"Guandong",104.029408095641,30.7212770220092,"heavy_rail",2020
181,"Xintong Avenue",104.023610236649,30.7280124271129,"heavy_rail",2020
182,"Xinchuan Road",104.01888803352,30.7332424019395,"heavy_rail",2020
183,"Longdengshan",104.055448481425,30.6881382302012,"heavy_rail",2020
184,"Pucaotang",104.069461618384,30.6883420174514,"heavy_rail",2020
185,"Wan'an",104.080323028061,30.684794547934,"heavy_rail",2020
186,"Lushan Avenue",104.08968970726,30.6805461486466,"heavy_rail",2020
187,"Shenyang Road",104.089941879804,30.6467519868871,"heavy_rail",2020
188,"Qingdao Road",104.095879926087,30.6227224430336,"heavy_rail",2020
189,"Hangzhou Road",104.095582785599,30.6026790878682,"heavy_rail",2020
190,"Tianfu Commercial District",104.096009213011,30.551809457929,"heavy_rail",2020
191,"Diaoyuzui",104.08667380901,30.5925396003622,"heavy_rail",2020
192,"University of Electronic Science and Technology of China & Jianshe North Road",104.093678233933,30.5609687071383,"heavy_rail",2020
193,"Xinhong Road",104.095835725017,30.5405077790421,"heavy_rail",2020
194,"Niuwangmiao",104.095822043523,30.5331742801397,"heavy_rail",2020
195,"Yushuang Road",104.095988092957,30.5241446998648,"heavy_rail",2020
196,"Qianfeng Road",104.097916398883,30.5180144906631,"heavy_rail",2020
197,"Shunjiang Road",104.095898610747,30.5031903140807,"heavy_rail",2020
198,"Sanguantang",104.099008467967,30.5117723759546,"heavy_rail",2020
199,"Dongguang",104.097107940367,30.4969762486053,"heavy_rail",2020
200,"Liulichang",104.100425197624,30.4863225128839,"heavy_rail",2020
201,"Liusan Road",104.098871961326,30.4697973892086,"heavy_rail",2020
202,"Jinshi Road",104.099456646021,30.4611741854576,"heavy_rail",2020
203,"Financial City East",104.087071190442,30.4422640864661,"heavy_rail",2020
204,"Zhonghe",104.084072005036,30.4328681345784,"heavy_rail",2020
205,"Changgongyan",104.093250226012,30.451726315046,"heavy_rail",2020
206,"Western China Int'l Expo City",104.072828544118,30.4272946112703,"heavy_rail",2020
207,"Qinhuangsi",104.043071296301,30.4287488952084,"heavy_rail",2020
208,"Songlin",104.030232802773,30.4389069908806,"heavy_rail",2020
209,"Lujiao",104.010609380939,30.4466555857254,"heavy_rail",2020
210,"Huilong",104.096451068064,30.6732254894533,"heavy_rail",2020
211,"Lanjiagou",104.099328508384,30.6659792612001,"heavy_rail",2020
212,"Renmin Road North",104.09629123839,30.6566606965062,"heavy_rail",2020
213,"Shawan",104.090891048653,30.6369412090259,"heavy_rail",2020
214,"Southwest Jiaotong University",104.092030605243,30.6307376434233,"heavy_rail",2020
215,"Xinghe",104.096350108333,30.6097169558742,"heavy_rail",2020
216,"Jinfu",104.081654963699,30.5816148198043,"heavy_rail",2020
217,"Xihua Avenue",104.059443285241,30.4270219712832,"heavy_rail",2020
218,"Qinggang",104.035245662859,30.4341528594653,"heavy_rail",2020
219,"Houjiaqiao",104.0542850868,30.6970129785787,"heavy_rail",2020
220,"Houjiaqiao",103.993575209752,30.4464451140942,"heavy_rail",2020
221,"Xingye North Street",104.048587569829,30.6918285029285,"heavy_rail",2020
222,"Xipu",104.046238537026,30.6984501192875,"heavy_rail",2020
223,"Tianyu Road",104.035182398253,30.7130659035669,"heavy_rail",2020
224,"Honggao Road",103.994679204573,30.7468349777074,"heavy_rail",2020
225,"Shangjin Road",103.98058270745,30.7618130836622,"heavy_rail",2020
226,"Mengzi",103.93505441153,30.7720088584389,"heavy_rail",2020
227,"Shuxin Avenue",104.071452760868,30.6978094079263,"heavy_rail",2020
228,"Pitong",104.064021463796,30.6979191020408,"heavy_rail",2020
229,"Heping Street",104.037037354031,30.7001629627858,"heavy_rail",2020
230,"Wangcong Temple",104.028632934862,30.6988052216905,"heavy_rail",2020
231,"Xibeiqiao",104.045924326148,30.6967338261392,"heavy_rail",2020
232,"North Railway Station",104.018353499312,30.6911280360531,"heavy_rail",2017
233,"2nd Beizhan Road West",104.010840123187,30.6807768307282,"heavy_rail",2017
234,"Huazhaobi",104.007076038472,30.674012329066,"heavy_rail",2017
235,"Chadianzi",104.005650120154,30.6634674770263,"heavy_rail",2017
236,"Yipintianxia",104.00622217194,30.653609401668,"heavy_rail",2017
237,"Dongpo Road",104.010318696983,30.6400719733964,"heavy_rail",2017
238,"Longzhuayan",104.01864877257,30.628021717568,"heavy_rail",2017
239,"Wuhou Avenue",104.031284676734,30.6187693662583,"heavy_rail",2017
240,"Shenxianshu",104.044349784535,30.6119442547739,"heavy_rail",2017
241,"South Railway Station",104.065777926465,30.6075362936431,"heavy_rail",2017
242,"Sanwayao",104.078454285091,30.6065714850175,"heavy_rail",2017
243,"Liulichang",104.098658143142,30.6097535229066,"heavy_rail",2017
244,"Sichuan Normal University",104.113326466231,30.6115249973942,"heavy_rail",2017
245,"Huaishudian",104.130638795167,30.6239960705928,"heavy_rail",2017
246,"Shuangdian Road",104.137328599785,30.6321761434445,"heavy_rail",2017
247,"Cuijiadian",104.136995942818,30.6531472719215,"heavy_rail",2017
248,"Chengdu University of Technology",104.134261658735,30.660297355028,"heavy_rail",2017
249,"Erxianqiao",104.134104806295,30.6682987225654,"heavy_rail",2017
250,"Balizhuang",104.133134559882,30.6763551192537,"heavy_rail",2017
251,"Simaqiao",104.123675400453,30.6834267692906,"heavy_rail",2017
252,"Fuqing Road",104.117933603182,30.6878088210064,"heavy_rail",2017
253,"Jinsha Site Museum",104.112603033978,30.6917594144904,"heavy_rail",2017
254,"Southwest Jiaotong University",104.093167353326,30.6980539464504,"heavy_rail",2017
255,"Jiulidi",104.121796383353,30.6183727262418,"heavy_rail",2017
256,"Taipingyuan",104.137195346667,30.64135959159,"heavy_rail",2017
257,"Gaopeng Avenue",103.975864409825,30.5463158627452,"heavy_rail",2017
258,"Shizishan",103.98805578156,30.5533096489506,"heavy_rail",2017
259,"Daguan",104.004551671762,30.5578044303014,"heavy_rail",2017
260,"East Chengdu Railway Station",104.005444028395,30.5693351023546,"heavy_rail",2017
261,"Yinghui Road",104.008504274013,30.5795455198762,"heavy_rail",2017
262,"Jiulidi",104.024135760672,30.5837879449174,"heavy_rail",2020
263,"Wenxing",104.029660528675,30.5889352587733,"heavy_rail",2020
264,"Sichuan University Jiang'an Campus",104.032211181481,30.6093766042965,"heavy_rail",2020
265,"Zhujiang Road",104.031654501016,30.6007049567724,"heavy_rail",2020
266,"Shunfeng",104.032572172912,30.6198854015408,"heavy_rail",2020
267,"Shiyang",104.036214832764,30.6257625486493,"heavy_rail",2020
268,"Yinjialin",104.044193540958,30.6307712492813,"heavy_rail",2020
269,"Qing'an",104.050448551135,30.628270506724,"heavy_rail",2020
270,"Gaopeng Avenue",104.062238068085,30.6274011003426,"heavy_rail",2020
271,"Jiuxing Avenue",104.072667181787,30.6276295994416,"heavy_rail",2020
272,"Yongfeng",104.085501911666,30.6220150986834,"heavy_rail",2020
273,"Fangcao Street",104.101944884257,30.6250577135731,"heavy_rail",2020
274,"Nijiaqiao",104.10895682542,30.6355077496944,"heavy_rail",2020
275,"Sichuan University Wangjiang Campus",104.11241041529,30.6572096898187,"heavy_rail",2020
276,"East Lake Park",104.111889814555,30.6496919515392,"heavy_rail",2020
277,"Jingju Temple",104.117025319105,30.6666989657617,"heavy_rail",2020
278,"Dongda Road",104.12662147054,30.6708901670571,"heavy_rail",2020
279,"Wannian Road",104.13597970474,30.6762617634203,"heavy_rail",2020
280,"Shabanqiao",104.143242092276,30.6832034418793,"heavy_rail",2020
281,"Dongjiao Memory",104.082602715934,30.581727048187,"heavy_rail",2020
282,"Chengdu University of Technology",104.069888987191,30.5783285614571,"heavy_rail",2020
283,"Shilidian",104.063245919328,30.5780568902959,"heavy_rail",2020
284,"Financial City East",104.046233019008,30.5776640492878,"heavy_rail",2020
285,"Incubation Park",104.009953799442,30.5939900483416,"heavy_rail",2020
286,"Jincheng Avenue",104.024488434657,30.583216638341,"heavy_rail",2020
287,"Cuqiao",104.000048389656,30.6011140896762,"heavy_rail",2020
288,"Wuqing South Road",103.988811143367,30.608508755297,"heavy_rail",2020
289,"Jitouqiao",103.982909115293,30.6240164332765,"heavy_rail",2020
290,"Peifeng",103.976070881179,30.6484988747194,"heavy_rail",2020
291,"Chengdu West Railway Station",103.974794619184,30.6631959010428,"heavy_rail",2020
292,"Taipingyuan",103.973016704237,30.6873316195339,"heavy_rail",2017
293,"Cujin",104.019744232321,30.6281822167131,"heavy_rail",2017
294,"Xinping",104.005903847429,30.6137300604831,"heavy_rail",2019
295,"Liujianian",103.997605333203,30.599531287816,"heavy_rail",2019
296,"Rulinlu",103.969366535412,30.5951974341497,"heavy_rail",2019
297,"Wujin",103.95437642354,30.5712683354837,"heavy_rail",2019
298,"Huaqiao",103.957302354162,30.5812144992968,"heavy_rail",2019
299,"Xinjin Station",103.902558430904,30.5383928847642,"heavy_rail",2019
300,"Huayuan",103.915663130725,30.5456963205661,"heavy_rail",2019
301,"Huangshui",103.889218941885,30.5218664294805,"heavy_rail",2019
302,"Yingtiansi Temple",103.878784523344,30.4881995317925,"heavy_rail",2019
303,"Shuangliu West Station",103.811521442739,30.4265200458248,"heavy_rail",2019
304,"Terminal 2 of Shuangliu International Airport",103.855302159294,30.4445501468534,"heavy_rail",2017
305,"Terminal 1 of Shuangliu International Airport",103.871172025874,30.4658088447914,"heavy_rail",2017
306,"Jinhua",103.801941611104,30.4197759834311,"heavy_rail",2017
307,"Huaxing",103.788548014251,30.4179030672036,"heavy_rail",2017
308,"Sanyuan",103.778973674264,30.4106400280588,"heavy_rail",2020
309,"South Railway Station",104.06529880578,30.606400487604,"default",2020
310,"Incubation Park",104.065946226099,30.5799997750447,"default",2020
311,"Jincheng Plaza East",104.066323161559,30.5713851446519,"default",2020
312,"Century City",104.066928867096,30.557599146612,"default",2020
313,"Haichang Road",104.06895254464,30.4958113689562,"default",2020
314,"Western China Int'l Expo City",104.072205103764,30.4259142973934,"default",2020
315,"Xinglong",104.101779272788,30.4122429327563,"default",2020
316,"Sancha",104.314957416709,30.3131900348538,"default",2020
317,"Tianfu New Station",104.384846620756,30.2806010460652,"default",2021
318,"Terminal 3&4 of Tianfu International Airport",104.149160447966,30.3926950307906,"default",NA
319,"Tianfu International Airport North",104.432358920282,30.2939117753512,"default",2020
320,"Dongguang",104.442333068658,30.3152059202872,"heavy_rail",2020
321,"Shuangqiao Road",104.452852470738,30.3379720300631,"heavy_rail",2020
322,"Huaxing",104.094778400473,30.6219589989967,"heavy_rail",2020
323,"Taiping Temple",104.080831627765,30.7071445932872,"heavy_rail",2020
324,"Caotang Road North",104.07094734661,30.6977340973118,"heavy_rail",2015
325,"Culture Palace",104.070613606169,30.6876381150399,"heavy_rail",2017
326,"Sanyuan",104.065612537545,30.6748872733074,"heavy_rail",2020
