"nodeID","nodeLabel","longitud","latitud","mode","year"
1,"Kouhsar",51.2798688302231,35.7698103535066,"heavy_rail",2023
2,"Shahr-e Ziba",51.2958211567146,35.746150300023,"heavy_rail",2023
3,"Shahran",51.2876649220078,35.7535570108428,"heavy_rail",2023
4,"",51.28411609885,35.7628463975075,"heavy_rail",NA
5,"",51.203353561981,35.537306581178,"heavy_rail",NA
6,"Dehqanvilla",51.2302926237283,35.5513316734342,"heavy_rail",NA
7,"Sehrarh-e Rajaishahr",50.959715986594,35.8316330698904,"heavy_rail",2023
8,"Sadeghiyeh",50.9662312325652,35.829595361755,"heavy_rail",1999
9,"Sadeghiyeh",51.2543167952705,35.5620366478205,"commuter_rail",1999
10,"Hashtgerd",51.330914197553,35.7177526856461,"commuter_rail",1999
11,"Golshahr",50.7190820716597,35.9588056126069,"commuter_rail",1999
12,"Mohammad Shahr (Mahdasht)",50.9329144857658,35.8249898496724,"commuter_rail",1999
13,"Karaj",50.9652360911016,35.8021000022074,"commuter_rail",1999
14,"Atmosfer",51.0025641860843,35.7866199550922,"commuter_rail",1999
15,"Garmdarreh",51.0459823659553,35.7675448586119,"commuter_rail",1999
16,"Vardavard",51.0817804753453,35.7517767529028,"commuter_rail",1999
17,"Iran Khodro",51.1505652956378,35.7438096948813,"commuter_rail",1999
18,"Chitgar",51.1965162969448,35.7252906445297,"commuter_rail",1999
19,"Azadi Stadium",51.2437936879772,35.7169600330178,"commuter_rail",1999
20,"Eram-e Sabz",51.2814189740468,35.7165843738764,"commuter_rail",1999
21,"Imam Khomeini",51.4208946068306,35.6855523865291,"heavy_rail",2000
22,"Imam Khomeini",51.3435358101925,35.7161839883658,"heavy_rail",2000
23,"Tarasht",51.3019545326902,35.7176056518292,"heavy_rail",2000
24,"Sharif University",51.4156283667915,35.6296185854594,"heavy_rail",2000
25,"Shademan",51.4193978802362,35.610091209923,"heavy_rail",2000
26,"Shademan",51.4222727817049,35.595021464199,"heavy_rail",2000
27,"Shahid Navvab-e Safavi",51.3992595428127,35.5598749039618,"heavy_rail",2000
28,"Shahid Navvab-e Safavi",51.3824497130046,35.5474894308404,"heavy_rail",2000
29,"Meydan-e Horr",51.3728929803297,35.5450620470764,"heavy_rail",2000
30,"Imam Ali University",51.369345657549,35.5214139775135,"heavy_rail",2000
31,"Imam Ali University",51.3493513827551,35.5398293534669,"heavy_rail",2000
32,"Hasan Abad",51.154469315622,35.4078118127904,"heavy_rail",2000
33,"Mellat",51.4244354642653,35.693086949935,"heavy_rail",2000
34,"Baharestan",51.4260281735407,35.7016714839803,"heavy_rail",2000
35,"Darvazeh Shemiran",51.4257454902009,35.7070166881889,"heavy_rail",2000
36,"Darvazeh Shemiran",51.4259229197426,35.7152823861765,"heavy_rail",2000
37,"Imam Hossein",51.427718874868,35.7242218108343,"heavy_rail",2000
38,"Imam Hossein",51.4272030488897,35.7307160593567,"heavy_rail",2000
39,"Shahid Madani",51.426969843879,35.7403772140554,"heavy_rail",2000
40,"Sabalan",51.4267806407858,35.7484260009231,"heavy_rail",2000
41,"Fadak",51.42695700111,35.755781843788,"heavy_rail",2000
42,"Janbazan",51.4344230681299,35.7593257629491,"heavy_rail",2000
43,"Sarsabz",51.4441949537369,35.7629027952352,"heavy_rail",2000
44,"Elm-o-Sanat University",51.4381143154179,35.7729028558793,"heavy_rail",2000
45,"Shahid Bagheri",51.4360329267726,35.7851206141472,"heavy_rail",2000
46,"Tehranpars",51.4349454759351,35.7929117338257,"heavy_rail",2000
47,"Farhangsara",51.4340803563617,35.8047207961158,"heavy_rail",2000
48,"Panzdah-e-Khordad",51.3240975213689,35.695598815821,"heavy_rail",2001
49,"Khayam",51.331231747112,35.6885827341094,"heavy_rail",2001
50,"Meydan-e Mohammadiyeh",51.3072166366551,35.7054996857548,"heavy_rail",2001
51,"Shoush",51.3335813149355,35.6996251889038,"heavy_rail",2001
52,"Meydan-e Mohammadiyeh",51.344698451581,35.6998938842405,"heavy_rail",2001
53,"Payane Jonoob",51.3560401354309,35.7001694056679,"heavy_rail",2001
54,"Shahid Bokharaei",51.3785148476057,35.7006655548632,"heavy_rail",2001
55,"Eram-e Sabz",51.3221656511966,35.6993554411809,"heavy_rail",1999
56,"Ali Abad",51.3534004350997,35.7060950853581,"heavy_rail",2001
57,"Javanmard-e-Ghassab",51.3787105470991,35.6950427993348,"heavy_rail",2001
58,"Shahr-e-Rey",51.3879604223179,35.6911266955675,"heavy_rail",2001
59,"Palayeshgah",51.3993161538902,35.6874659137069,"heavy_rail",2001
60,"Shahed - Bagher Shahr",51.4101191338344,35.6862304940444,"heavy_rail",2001
61,"Haram-e Motahhar-e Emam Khomeini",51.4330108542464,35.6918871928851,"heavy_rail",2001
62,"Kahrizak",51.437370362097,35.6989843036658,"heavy_rail",2001
63,"Shahr-e Aftab",51.4454249757598,35.7021604381781,"heavy_rail",2017
64,"Imam Khomeini Airport",51.4533431094608,35.7092300883183,"heavy_rail",2017
65,"Saadi",51.4645346745234,35.7187219710643,"heavy_rail",2001
66,"Darvazeh Dowlat",51.4756837068636,35.7266176242844,"heavy_rail",2001
67,"Darvazeh Dowlat",51.4948211079931,35.7357865917966,"heavy_rail",2001
68,"Taleghani",51.4842990083077,35.7335261839028,"heavy_rail",2001
69,"Shohada-ye Haftom-e Tir",51.5049573682607,35.7344737459846,"heavy_rail",2001
70,"Shohada-ye Haftom-e Tir",51.5163720577876,35.7329401490171,"heavy_rail",2001
71,"Shahid Mofatteh",51.5317976152512,35.7308697376215,"heavy_rail",2001
72,"Shahid Beheshti",51.5476016659785,35.7295609236894,"heavy_rail",2001
73,"Shahid Beheshti",51.4172523536092,35.6781146997157,"heavy_rail",2001
74,"Mosalla",51.4165566957842,35.673388337118,"heavy_rail",2001
75,"Shahid Hemmat",51.4157562704947,35.6680180680777,"heavy_rail",2001
76,"Shahid Haghani",51.4142063217202,35.6574010207637,"heavy_rail",2001
77,"Mirdamad",51.416220739893,35.6508258207478,"heavy_rail",2001
78,"Shariati",51.4147367759554,35.6407762725823,"heavy_rail",2001
79,"Gholhak",51.3646740806459,35.7003735588957,"heavy_rail",2001
80,"Shahid Sadr",51.4270619600131,35.6887056736904,"heavy_rail",2001
81,"Gheytariyeh",51.3899330148717,35.7008924299358,"heavy_rail",2001
82,"Tajrish",51.405469327951,35.7012116064131,"heavy_rail",2001
83,"Bimeh",51.4182106029345,35.7014974772043,"heavy_rail",2008
84,"Mehrabad Airport T1&2",51.4473200449056,35.6905092969486,"heavy_rail",2016
85,"Mehrabad Airport T4&6",51.4566292655228,35.6902650356535,"heavy_rail",2016
86,"Shahrak-e Ekbatan",51.4679682479685,35.6910979405969,"heavy_rail",2008
87,"Meydan-e Azadi",51.4773078950548,35.6917748163359,"heavy_rail",2008
88,"Ostad Moein",51.4882186883818,35.6925664718256,"heavy_rail",2008
89,"Doctor Habib-o-llah",51.5016763795269,35.699792987093,"heavy_rail",2008
90,"Towhid",51.3354417307967,35.6275920208969,"heavy_rail",2008
91,"Meydan-e Enghelab-e Eslami",51.3470642929278,35.6336698199456,"heavy_rail",2008
92,"Teatr-e Shahr",51.3598539523136,35.6384502851873,"heavy_rail",2008
93,"Teatr-e Shahr",51.368859196013,35.6445098646372,"heavy_rail",2008
94,"Towhid",51.3735066167929,35.652568936932,"heavy_rail",2008
95,"Ferdowsi",51.3881123479475,35.6591643058004,"heavy_rail",2008
96,"Meydan-e Shohada",51.3974664122386,35.6590556788599,"heavy_rail",2008
97,"Meydan-e Shohada",51.401546210359,35.6810721254421,"heavy_rail",2008
98,"Ebn-e Sina",51.4083919960619,35.7207463611882,"heavy_rail",2008
99,"Piroozi",51.4169236629717,35.7280753930692,"heavy_rail",2008
100,"Nabard",51.4370391368276,35.7311210145428,"heavy_rail",2008
101,"Nirooye Havaei",51.4446654698077,35.7314617222559,"heavy_rail",2008
102,"Shahid Kolahdooz",51.45819368023,35.7350580472684,"heavy_rail",2008
103,"Azadegan",51.462331473791,35.7436474598681,"heavy_rail",2012
104,"Ne'mat Abad",51.4658114179525,35.7604622547332,"heavy_rail",2012
105,"Abdol Abad",51.4726728379413,35.771475856655,"heavy_rail",2012
106,"Shahrak-e Shari'ati",51.4778493637843,35.7790805209584,"heavy_rail",2012
107,"Zam Zam",51.478345532038,35.7907100975164,"heavy_rail",2012
108,"Javadiyeh",51.4835503032797,35.8005921691909,"heavy_rail",2012
109,"Rahahan",51.5080254034689,35.7974906795219,"heavy_rail",2012
110,"Mahdiyeh",51.5207158543874,35.7992313195143,"heavy_rail",2012
111,"Mahdiyeh",51.3993169374438,35.6671954044528,"heavy_rail",2012
112,"Moniriyeh",51.4902865882583,35.6667505947196,"heavy_rail",2012
113,"Meydan-e Vali Asr",51.4737434536912,35.6689586000504,"heavy_rail",2012
114,"Meydan-e Jahad",51.4367509333431,35.6697274239818,"heavy_rail",2012
115,"Mirzaye Shirazi",51.4267812035707,35.6690427941552,"heavy_rail",2012
116,"Sohrevardi",51.3870652634938,35.6678940670037,"heavy_rail",2012
117,"Shahid Ghoddoosi",51.3811023506205,35.6730642475125,"heavy_rail",2012
118,"Shahid Sayyad-e Shirazi",51.3801582316543,35.6805893148368,"heavy_rail",2012
119,"Khajeh Abdollah-e Ansari",51.379441712073,35.6876217300129,"heavy_rail",2012
120,"Shahid Zeyn-o-ddin",51.3776924019399,35.7065097317005,"heavy_rail",2012
121,"Heravi",51.3827867107335,35.7330127251582,"heavy_rail",2012
122,"Hossein Abad",51.3782712274896,35.7476456038228,"heavy_rail",2012
123,"Nobonyad",51.3809317855993,35.724246308164,"heavy_rail",2012
124,"Aghdasiyeh",51.3676615081507,35.7546400181861,"heavy_rail",2012
125,"Shahid Mahallati",51.462384115659,35.6682426944381,"heavy_rail",2012
126,"Ghaem",51.445720718766,35.6684996985791,"heavy_rail",2012
127,"Basij",51.4645050402696,35.6175969428171,"heavy_rail",2017
128,"Ahang",51.448521515602,35.6327570870555,"heavy_rail",2017
129,"Chehel Tan-e Doolab",51.4445131214173,35.6447498002558,"heavy_rail",2017
130,"Shohada-ye Hefdah-e Shahrivar",51.4445489449838,35.6522386143152,"heavy_rail",2017
131,"Shohada-ye Hefdah-e Shahrivar",51.4467573518609,35.6826556552311,"heavy_rail",2017
132,"Meydan-e Ghiyam",51.3695177136187,35.729237457388,"heavy_rail",2017
133,"Molavi",51.3593808150885,35.7343948696609,"heavy_rail",2017
134,"Helale Ahmar",51.3461330874857,35.7347681564072,"heavy_rail",2017
135,"Beryanak",51.3318063783359,35.73616267998,"heavy_rail",2017
136,"Komeyl",51.3213119849172,35.7372212506753,"heavy_rail",2017
137,"Roudaki",51.4431979905548,35.7099809371703,"heavy_rail",2017
138,"Daneshgah-e Tarbiat",51.4393057942628,35.7154636329241,"heavy_rail",2017
139,"Modafean-e Salamat",51.4149766257999,35.7151389027812,"heavy_rail",2017
140,"Goftogo Park",50.9431298332007,35.8367519543264,"heavy_rail",2017
141,"Milad Tower",50.951472009575,35.8341526383828,"heavy_rail",2017
142,"Daneshgah-e Tarbiat",50.9869502513621,35.8219299686356,"heavy_rail",2017
143,"Meydan-e San'at",51.3668704655573,35.7664969810692,"heavy_rail",2017
144,"Dowlat Abad",51.3894486902532,35.7148903815274,"heavy_rail",2019
145,"Kian Shahr",51.3970847577141,35.7089422514463,"heavy_rail",2019
146,"Besat",51.4070491832273,35.7120979174238,"heavy_rail",2019
147,"Shahid Rezaei",51.3050749641953,35.7308737433039,"heavy_rail",2019
148,"Amir Kabir",50.9770617676987,35.4638615427183,"heavy_rail",2019
149,"Shahrak-e-Azmayesh",51.3038449247686,35.7522419135557,"heavy_rail",2019
150,"Marzdaran",50.7913801396477,35.9177224995349,"heavy_rail",2019
151,"Yadegar-e Emam",51.3558409290406,35.7772427868903,"heavy_rail",2019
152,"Shahid Ashrafi Esfahani",51.3051378991323,35.7390466992822,"heavy_rail",2019
153,"Shahid Sattari",51.451484890358,35.6094783380839,"heavy_rail",2019
154,"",51.4388839900356,35.5970526148797,"heavy_rail",NA
155,"",51.3234147080973,35.6186616253601,"heavy_rail",NA
156,"",51.3046510042196,35.6055117186128,"heavy_rail",NA
