"nodeID","nodeLabel","longitud","latitud","mode","year"
1,"Xiaoshizi",106.570372056407,29.5562479526524,"heavy_rail",2011
2,"Jiaochangkou",106.579762872767,29.5627646877659,"heavy_rail",2011
3,"Qixinggang",106.569328036951,29.555960304812,"heavy_rail",2011
4,"Lianglukou",106.558694431811,29.5580420329067,"heavy_rail",2011
5,"Eling",106.545558751414,29.5553907843985,"heavy_rail",2011
6,"Daping",106.530007504168,29.5507150530255,"heavy_rail",2011
7,"Shiyoulu",106.506173864392,29.5418398859379,"heavy_rail",2011
8,"Xietaizi",106.465309504249,29.5388659796353,"heavy_rail",2011
9,"Shiqiaopu",106.464555645785,29.5479207466616,"heavy_rail",2011
10,"Gaomiaocun",106.464639937943,29.5561204445776,"heavy_rail",2011
11,"Majiayan",106.456371503836,29.5591899328433,"heavy_rail",2011
12,"Xiaolongkan",106.445679872288,29.5649248178491,"heavy_rail",2011
13,"Shapingba",106.44143885812,29.5703054462738,"heavy_rail",2011
14,"Yanggongqiao",106.442553610168,29.5790991142172,"heavy_rail",2011
15,"Lieshimu",106.440339040515,29.5920792832194,"heavy_rail",2013
16,"Ciqikou",106.440432697374,29.6119097309325,"heavy_rail",2012
17,"Shijingpo",106.377113117132,29.6128323015769,"heavy_rail",2014
18,"Shuangbei",106.360344995881,29.6122023096394,"heavy_rail",2012
19,"Laijiaqiao",106.324541417381,29.6099328068033,"heavy_rail",2012
20,"Weidianyuan",106.303431801978,29.6100614610568,"heavy_rail",2013
21,"Chenjiaqiao",106.288023037961,29.610029939943,"heavy_rail",2012
22,"Daxuecheng",106.227351463948,29.6155364654651,"heavy_rail",2012
23,"Jiandingpo",106.514596341293,29.543490993997,"heavy_rail",2014
24,"Bishan",106.481141061443,29.5354187748612,"heavy_rail",2019
25,"Jiaochangkou",106.569511250468,29.5618377370384,"heavy_rail",2004
26,"Linjiangmen",106.561556981107,29.5660549514063,"heavy_rail",2004
27,"Huanghuayuan",106.554984275055,29.5690216202309,"heavy_rail",2004
28,"Daxigou",106.54680004031,29.5693276395097,"heavy_rail",2004
29,"Zengjiayan",106.538854015606,29.5633890762204,"heavy_rail",2004
30,"Niujiaotuo",106.534027169699,29.5557525892759,"heavy_rail",2004
31,"Liziba",106.527587762765,29.552013362613,"heavy_rail",2004
32,"Fotuguan",106.514947607802,29.5441604488476,"heavy_rail",2004
33,"Daping",106.509933644512,29.5317526350477,"heavy_rail",2004
34,"Yuanjiagang",106.513831349382,29.5218340783595,"heavy_rail",2004
35,"Xiejiawan",106.509996429576,29.510609666664,"heavy_rail",2004
36,"Yangjiaping",106.505347419193,29.5027895568114,"heavy_rail",2004
37,"Dingwuyuan (Zoo)",106.495289283021,29.5023122423033,"heavy_rail",2004
38,"Dayancun",106.484719388726,29.498749511268,"heavy_rail",2006
39,"Mawangchang",106.481437156401,29.4914677916979,"heavy_rail",2006
40,"Ping'an",106.474289823465,29.4845453802892,"heavy_rail",2006
41,"Dadukou",106.472445203496,29.4747682676027,"heavy_rail",2006
42,"Xinshancun",106.470807816258,29.452428068859,"heavy_rail",2006
43,"Tiantangbao",106.471574593713,29.4406721195616,"heavy_rail",2014
44,"Jianqiao",106.478958662113,29.4301223514566,"heavy_rail",2014
45,"Jinjiawan",106.488090929987,29.4173810226919,"heavy_rail",2014
46,"Liujiaba",106.501837469734,29.3788554385568,"heavy_rail",2014
47,"Baijusi",106.536800309365,29.6020841807214,"heavy_rail",2014
48,"Dajiang",106.501864091195,29.3788433753739,"heavy_rail",2014
49,"Yudong",106.546625817407,29.4351205245393,"heavy_rail",2014
50,"Yudong",106.550874426356,29.4514977673346,"heavy_rail",2011
51,"Jinzhu",106.56215196025,29.4810449249779,"heavy_rail",2013
52,"Yuhulu",106.570165721069,29.5102103258754,"heavy_rail",2012
53,"Xuetangwan",106.572390684457,29.5195138214287,"heavy_rail",2012
54,"Dashancun",106.566386183104,29.5287590594847,"heavy_rail",2012
55,"Huaxi",106.558834254594,29.5345050242127,"heavy_rail",2013
56,"Chalukou",106.547699159081,29.5399340914058,"heavy_rail",2013
57,"Jiugongli",106.545838195475,29.555149140222,"heavy_rail",2012
58,"Qilong",106.533400177535,29.5665968011218,"heavy_rail",2012
59,"Bagongli",106.529134612782,29.5761794385594,"heavy_rail",2012
60,"Ertang (Chongqing Jiaotong University)",106.52205555092,29.5895459413065,"heavy_rail",2011
61,"Liugongli",106.518790775507,29.5976980270033,"heavy_rail",2011
62,"Wugongli (Chongqing Technology and Business University)",106.526338704,29.6020683532039,"heavy_rail",2013
63,"Sigongli",106.545661362045,29.6197366377049,"heavy_rail",2011
64,"Nanping",106.545620919145,29.6110047522622,"heavy_rail",2011
65,"Gongmao",106.551489006773,29.6312177659226,"heavy_rail",2012
66,"Tongyuanju",106.566886243796,29.6381586820253,"heavy_rail",2012
67,"Lianglukou",106.569720110545,29.6109705544041,"heavy_rail",2012
68,"Niujiaotuo",106.556438711296,29.6641617743181,"heavy_rail",2011
69,"Huaxinjie",106.56016150807,29.6774176611527,"heavy_rail",2011
70,"Guanyinqiao",106.569322393955,29.6889712580102,"heavy_rail",2011
71,"Hongqihegou",106.585242896882,29.6904510963773,"heavy_rail",2012
72,"Jiazhoulu",106.60201722131,29.6931462682157,"heavy_rail",2011
73,"Zhengjiayuanzi",106.615044454909,29.7007064078629,"heavy_rail",2012
74,"Tangjiayuanzi",106.634507733055,29.7211192161431,"heavy_rail",2011
75,"Shiziping",106.563828183891,29.6459951525848,"heavy_rail",2011
76,"Chongqing Beizhan Nanguang (South Square of Chongqing North)",106.628708714599,29.7138644402046,"heavy_rail",2011
77,"Longtousi",106.630160466073,29.7392764942364,"heavy_rail",2013
78,"Tongjiayuanzi",106.628818477942,29.7318374787368,"heavy_rail",2011
79,"Jinyu",106.663700937813,29.794097603668,"heavy_rail",2011
80,"Jintonglu",106.639112407566,29.7535377880017,"heavy_rail",2011
81,"Yuanyang",106.652403337194,29.7892928227932,"heavy_rail",2011
82,"Yuan Bo Yuan (The EXPO Garden)",106.649063649713,29.7781764579252,"heavy_rail",2011
83,"Cuiyun",106.55685550409,29.6782976361752,"heavy_rail",2011
84,"Changfulu",106.548614450673,29.6712821959242,"heavy_rail",2011
85,"Huixing",106.534879968988,29.6624434026388,"heavy_rail",2011
86,"Shuanglong",106.5682272865,29.5804299411963,"heavy_rail",2011
87,"Bijin",106.526087021089,29.6517730851411,"heavy_rail",2011
88,"Jiangbei Jichang T2 Hang Zhan Lou (Terminal 2 of Jiangbei Airport)",106.562370257395,29.5878292727979,"heavy_rail",2011
89,"Shuangfengqiao",106.530929581905,29.6343524051617,"heavy_rail",2016
90,"Konggang Dadao",106.474467976746,29.6306130052943,"heavy_rail",2016
91,"Gaobaohu",106.491119750231,29.5730703428918,"heavy_rail",2016
92,"Lianhua",106.519031873068,29.6261074072681,"heavy_rail",2016
93,"Jurenba",106.605459854345,29.6526410771844,"heavy_rail",2016
94,"Guanyuelu",106.50423069344,29.6197317343758,"heavy_rail",2016
95,"Min'an Dadao (Min'an Avenue)",106.505007562625,29.6713853078099,"heavy_rail",2019
96,"Chongqing Beizhan Beiguang (North Square of Chongqing North)",106.524633421938,29.7055432934031,"heavy_rail",2018
97,"Toutang",106.49487320813,29.6037103387547,"heavy_rail",2018
98,"Baoshuigang",106.494719926431,29.5923677215944,"heavy_rail",2018
99,"Cuntan",106.639074940836,29.4903572001175,"heavy_rail",2018
100,"Heishizi",106.645955317037,29.5008326141556,"heavy_rail",2018
101,"Taipingchong",106.65404773121,29.5135914044173,"heavy_rail",2018
102,"Tangjiatuo 唐家沱",106.650905292121,29.5281484841983,"heavy_rail",2018
103,"Yuan Bo Yuan (The EXPO Garden)",106.594491087941,29.559070698258,"heavy_rail",2017
104,"Danhe",106.580515109497,29.5624700631281,"heavy_rail",2017
105,"Huxiajie",106.573339298067,29.5722727324502,"heavy_rail",2017
106,"Chongguang",106.53446001855,29.5912428855653,"heavy_rail",2017
107,"Hemulu",106.548229917435,29.5869240029458,"heavy_rail",2017
108,"Renhe",106.521941881298,29.589093701468,"heavy_rail",2017
109,"Xingfu Guangchang (Xingfu Square)",106.51012566007,29.5859824207886,"heavy_rail",2017
110,"Ranjiaba",106.494827892923,29.5928391278607,"heavy_rail",2017
111,"Dalongshan",106.495009290292,29.6037006943281,"heavy_rail",2017
112,"Dashiba",106.495379961136,29.6187158963253,"heavy_rail",2018
113,"Chayuan",106.47505915876,29.6377358664029,"heavy_rail",2014
114,"Qiujiawan",106.478923959304,29.6569965097907,"heavy_rail",2014
115,"Changshengqiao",106.485661063093,29.6707484288383,"heavy_rail",2014
116,"Liujiaping",106.487055849452,29.6828390402879,"heavy_rail",2014
117,"Shangxinjie",106.490238088654,29.7229936368649,"heavy_rail",2014
118,"Xiaoshizi",106.488251657482,29.742999733156,"heavy_rail",2014
119,"Dajuyuan (Grand Theater)",106.475630853687,29.7436555791841,"heavy_rail",2014
120,"Jiangbeicheng",106.400140424813,29.7916707908184,"heavy_rail",2014
121,"Huangnibang",106.393735151349,29.8063483014806,"heavy_rail",2012
122,"Hongtudi",106.419859222879,29.8190083008487,"heavy_rail",2012
123,"Hongqihegou",106.433661714007,29.8284088317875,"heavy_rail",2012
124,"Huahuiyuan",106.528095509943,29.6793628560962,"heavy_rail",2012
125,"Dalongshan",106.541970053631,29.7197997510042,"heavy_rail",2012
126,"Ranjiaba",106.543905842059,29.7295771454613,"heavy_rail",2012
127,"Guangdianyuan",106.542272272492,29.7446909813698,"heavy_rail",2012
128,"Dazhulin ",106.543862912602,29.729731792118,"heavy_rail",2012
129,"Kangzhuang",106.566138529564,29.7264484255912,"heavy_rail",2012
130,"Jiuquhe",106.580227745512,29.7264848266899,"heavy_rail",2013
131,"Lijia",106.590601181706,29.7264850602692,"heavy_rail",2012
132,"Jinshansi",106.604522568275,29.7233246868417,"heavy_rail",2012
133,"Caojiawan",106.625466066542,29.7208583146462,"heavy_rail",2015
134,"Caijia",106.632810897046,29.7191006333322,"heavy_rail",2015
135,"Xiangjiagang",106.62541195167,29.6765769345552,"heavy_rail",2014
136,"Longfengxi",106.61819364501,29.6614414797831,"heavy_rail",0
137,"Zhuangyuanbei",106.652102711128,29.7093821637282,"heavy_rail",0
138,"Tiansheng",106.58093707555,29.6411343109892,"heavy_rail",0
139,"Beibei",106.562096863324,29.6287852122431,"heavy_rail",0
140,"Huangmaoping",106.546089288944,29.61841032924,"heavy_rail",0
141,"Gaoyikou",106.547182657338,29.6110488149479,"heavy_rail",0
142,"Guobo Zhongxin (International Expo Center)",106.546927051573,29.6014681379839,"heavy_rail",0
143,"Yuelai",106.547486649663,29.5868138258982,"heavy_rail",0
144,"	Wangjiazhuang",106.546062729294,29.5760883605138,"heavy_rail",2017
145,"Yuelai",106.426026936996,29.4067766520935,"heavy_rail",2017
146,"Zhongxin Gongyuan Xi (Central Park West)",106.350558623055,29.4017643461095,"heavy_rail",2017
147,"Zhongxin Gonyuan (Central Park)",106.309244509478,29.4016914109888,"heavy_rail",2017
148,"Zhongxin Gongyuan Dong (Central Park East)",106.258033680477,29.3846093460158,"heavy_rail",2017
149,"Lushan",106.253146517827,29.3461720251546,"heavy_rail",2017
150,"Yubei Guangchang (Yubei Square)",106.25582708808,29.3103002278184,"heavy_rail",2017
151,"Jiangbei Jichang T2 Hang Zhan Lou (Terminal 2 of Jiangbei Airport)",106.545482792191,29.6041317623196,"heavy_rail",2017
152,"Changhe",106.538935268244,29.5615530355817,"heavy_rail",2017
153,"Huanshan Gongyuan (Huanshan Park)",106.569567506813,29.5005930647703,"heavy_rail",2017
154,"Shangwanlu",106.569183190591,29.4916022974431,"heavy_rail",2017
155,"Sanyawan",106.558975495974,29.469962573449,"heavy_rail",2017
156,"	Minxinjiayuan",106.555503485058,29.4615560147483,"heavy_rail",2017
157,"Chongqing Beizhan Beiguang (North Square of Chongqing North)",106.540053163569,29.4158569544076,"heavy_rail",2017
158,"Chongqing Beizhan Nanguang (South Square of Chongqing North)",106.539432332481,29.4009819822286,"heavy_rail",2017
159,"Longtousi Park",106.535511662099,29.3806694777471,"heavy_rail",2017
160,"Hongtudi",106.520152144524,29.3785562679879,"heavy_rail",2017
161,"Liyuchi",106.497263163569,29.3871490323513,"heavy_rail",2017
162,"Jiangbei Jichang T3 Hang Zhan Lou (Terminal 3 of Jiangbei Airport)",106.46853565668,29.4695585221607,"heavy_rail",2017
163,"Haixialu",106.542674497564,29.5212765545728,"heavy_rail",2018
164,"Nanhu",106.596339648949,29.5677059014459,"heavy_rail",2018
165,"Sigongli",106.573917058554,29.5208419492921,"heavy_rail",2018
166,"Luojiaba",106.579306696417,29.5290953551107,"heavy_rail",2019
167,"Haitangxi",106.583336913424,29.5373783280515,"heavy_rail",2018
168,"Shanghao",106.590375014321,29.5494819825336,"heavy_rail",NA
169,"Renji",106.594015265598,29.5590769817098,"heavy_rail",2021
170,"Tushan",106.600812176394,29.5831270753618,"heavy_rail",2018
171,"Yulu",106.589037579646,29.5888854349415,"heavy_rail",2018
172,"Chongqing North Station South Square ",106.562471997224,29.587814493673,"heavy_rail",2018
173,"Min'an Ave",106.556273237065,29.6012448977008,"heavy_rail",2019
174,"Dongbu Park",106.547140102901,29.6100278318297,"heavy_rail",2018
175,"Ranjiaba",106.508126231713,29.6105390310614,"heavy_rail",2018
176,"Sports Park",106.523048191798,29.6110291455082,"heavy_rail",2018
177,"Nanqiaosi",106.501485316872,29.6064449827931,"heavy_rail",2019
178,"Chongqing University",106.495228237029,29.6036362663632,"heavy_rail",2018
179,"Shapingba",106.484458061735,29.603603230739,"heavy_rail",2018
180,"Chongqing Library",106.47879938758,29.596470315863,"heavy_rail",2018
181,"Fengmingshan",106.459443656775,29.5693338547806,"heavy_rail",2021
182,"Shangqiao",106.455621427861,29.5583506058544,"heavy_rail",2021
183,"Hualong",106.454862688802,29.5448705229436,"heavy_rail",2021
184,"Erlang",106.452579334076,29.5374793739998,"heavy_rail",2021
185,"Caiyunhu",106.444658999247,29.5268250122407,"heavy_rail",2019
186,"Chenjiaping",106.4389387283,29.5221779144773,"heavy_rail",2019
187,"Olympic Sports Center",106.449018750498,29.4982486268045,"heavy_rail",2019
188,"Xiejiawan",106.458236046397,29.508838315399,"heavy_rail",2019
189,"Zhongshutuo",106.467748662279,29.5185804975813,"heavy_rail",2023
190,"Xietaizi",106.47939053235,29.522963601392,"heavy_rail",2023
191,"Shixinlu",106.516214362944,29.5229362600916,"heavy_rail",2021
192,"Bashan",106.473303988296,29.5281772200854,"heavy_rail",2021
193,"Fengxilu",106.464327764906,29.5229635056278,"heavy_rail",2021
194,"Chongqing West Station",106.449496992026,29.5160243340201,"heavy_rail",2021
195,"Huayan Temple",106.43542632052,29.5027913210706,"heavy_rail",2021
196,"Chongqing West Station",106.435283280706,29.5027084633487,"heavy_rail",2021
197,"Huachenglu",106.441409889906,29.4964181904916,"heavy_rail",2021
198,"Zhongliangshan",106.44213309353,29.4618167777376,"heavy_rail",2021
199,"Jinjianlu",106.438160483538,29.4453672500969,"heavy_rail",2021
200,"Huayan Center",106.43643514393,29.4317074033986,"heavy_rail",2021
201,"Tiaodeng",106.433628321251,29.4108943268378,"heavy_rail",2021
202,"Banshan",106.448910922425,29.4831263696092,"heavy_rail",2021
203,"Xinqiao",106.446046902945,29.4746381335887,"heavy_rail",NA
204,"Gaotanyan",106.43507291917,29.5275081751187,"heavy_rail",2022
205,"Tianlilu",106.530299464695,29.5754327955613,"heavy_rail",2022
206,"Xiaolongkan",106.522478205527,29.5727517741045,"heavy_rail",2022
207,"Tuwan",106.517790734282,29.5629891662971,"heavy_rail",2022
208,"Hongyancun",106.51497140554,29.5527614600379,"heavy_rail",2022
209,"Fuhualu",106.476689097959,29.5538998723407,"heavy_rail",2022
210,"Lijiaping",106.465075223398,29.5560300194153,"heavy_rail",2022
211,"Mahuangliang",106.447413504513,29.5535535257579,"heavy_rail",2022
212,"Guanyinqiao",106.445145928781,29.5404895400426,"heavy_rail",2022
213,"Liyuchi",106.565925215664,29.5264259015422,"heavy_rail",2022
214,"Liujiatai",106.554137049169,29.5063252360461,"heavy_rail",2022
215,"Jiangbeicheng",106.556839898442,29.526062388531,"heavy_rail",2022
216,"Gailanxi",106.497235178636,29.5260017300584,"heavy_rail",2022
217,"Baoshuigang",106.49514108066,29.5415087179253,"heavy_rail",2022
218,"Hejialiang",106.499565074323,29.5537428607583,"heavy_rail",2022
219,"Shipanhe",106.544234190405,29.7673217234665,"heavy_rail",2022
220,"Shangwanlu",106.550496299477,29.7840675562193,"heavy_rail",2022
221,"Qinggangping",106.545551589385,29.8102597800756,"heavy_rail",2022
222,"Baoshenghu",106.546271287388,29.8251939185884,"heavy_rail",2022
223,"Xingke Ave",106.545525280487,29.8357354589703,"heavy_rail",2022
224,"Chunhua Ave",106.552699948976,29.8470295735494,"heavy_rail",2023
225,"Langui Ave",106.598637175301,29.6929916709318,"heavy_rail",2023
226,"Central Park East",106.604727219253,29.6818920791765,"heavy_rail",2023
227,"Congyansi",106.612767252108,29.6642199052028,"heavy_rail",2023
228,"Huashigou",106.605676420421,29.6525142604719,"heavy_rail",2023
229,"Zengjiayan",106.594650606999,29.6430083345383,"heavy_rail",2023
230,"Auditorium",106.592414928871,29.6278917924972,"heavy_rail",2023
231,"Qixinggang",106.569994237292,29.6107801739568,"heavy_rail",2023
232,"Houbao",106.578435648094,29.6187072398896,"heavy_rail",2023
233,"Wanshoulu",106.567834711764,29.5970145948368,"heavy_rail",2023
234,"Lanhualu",106.56498619638,29.5888158438299,"heavy_rail",2023
235,"Nanping",106.567985189899,29.5803955668361,"heavy_rail",NA
236,"Pingchang",106.559525020167,29.5757239898735,"heavy_rail",0
237,"Liujiayuanzi",106.582703190992,29.5682423661253,"heavy_rail",2020
238,"Siyuan",106.581427940025,29.7478432506251,"heavy_rail",2020
239,"Fuxing",106.589731332978,29.7261007417325,"heavy_rail",2020
240,"Hongyanping",106.592666063537,29.717369431007,"heavy_rail",2020
241,"Shaheba",106.595791807535,29.7093184602291,"heavy_rail",2020
242,"铁山坪",106.565468716292,29.5415440210325,"heavy_rail",2022
243,"鹿栖",106.558788029815,29.5570475601895,"heavy_rail",2022
244,"果园物流枢纽",106.553402707206,29.5616803892376,"heavy_rail",2022
245,"鱼嘴",106.546385605855,29.5686744103936,"heavy_rail",2022
246,"雁坪",106.544285068829,29.6185813789333,"heavy_rail",2022
247,"石河清",106.523184746163,29.6111049611512,"heavy_rail",2022
248,"复盛",106.578272925218,29.6189035293226,"heavy_rail",2022
249,"三板溪",106.602271158167,29.6245735877139,"heavy_rail",2022
250,"龙驿大道",106.617449392966,29.6275841197513,"heavy_rail",2022
251,"龙兴",106.637591368411,29.6082747315615,"heavy_rail",2022
252,"高石塔",106.655059046965,29.6083808639421,"heavy_rail",2022
253,"普福",106.6658455,29.6170361,"heavy_rail",2022
254,"Toutang",106.7122813,29.6033653,"heavy_rail",2022
255,"黄岭",106.7355723,29.6131764,"heavy_rail",2022
256,"桐梓林",106.7591607,29.6264756,"heavy_rail",2022
257,"石船",106.7715135,29.6297457,"heavy_rail",2022
258,"Hualongqiao",106.7956388,29.6411174,"heavy_rail",2022
259,"Shapingba",106.7962662,29.6588361,"heavy_rail",2022
260,"Chaotianmen",106.7933727,29.6706354,"heavy_rail",2020
261,"Shilinsi",106.7897403,29.6921486,"commuter_rail",2022
262,"Jiulongyuan",106.7978059,29.7041777,"commuter_rail",2022
263,"Shuangfu",106.7990403,29.7138539,"commuter_rail",2022
264,"Xiangtang",106.8001585,29.7317957,"commuter_rail",2022
265,"Jiangjin High-Speed Railway",106.8372514,29.774331,"commuter_rail",2022
266,"Shengquansi",106.8113019,29.7446704,"commuter_rail",2022
267,"Zhongxin Gongyuan Xi (Central Park West)",106.8297699,29.7623068,"heavy_rail",2023
268,"Yuegangbeilu",106.544767950296,29.5759487944287,"heavy_rail",2023
269,"Yuhegou",106.456446964467,29.5575920219362,"heavy_rail",NA
270,"Ganyue Ave.",106.592682927868,29.7597561301599,"heavy_rail",2023
271,"Lujiagou",106.568755303028,29.7258665977546,"heavy_rail",2023
272,"Chunxuan Ave.",106.565816256967,29.7560347490165,"heavy_rail",2023
273,"Yuegang Ave.",106.565757254584,29.7466449792722,"heavy_rail",2023
274,"Yudaishan",106.567406747788,29.736337683526,"heavy_rail",2018
275,"Hongyancun",106.567261971496,29.7134143382478,"heavy_rail",2022
276,"Nanhu",106.565452005731,29.7060092362255,"heavy_rail",2018
277,"",106.566580066425,29.6923033789453,"heavy_rail",NA
278,"Babinlu Wetland Park",106.472074037893,29.5832321397045,"heavy_rail",2023
279,"Qiezixi",106.489741701717,29.5621676013263,"heavy_rail",2023
280,"Jin'aoshan",106.490268503197,29.5533064553088,"heavy_rail",2023
281,"Funiuxi",106.552677170917,29.5194862890033,"heavy_rail",2023
282,"Tiaodeng",106.494598007311,29.5382789389779,"heavy_rail",2023
283,"Huaxi Industrial Park",106.452655847862,29.5917449105774,"heavy_rail",2023
284,"Chongqing University of Technology",106.303562874481,29.6013367916052,"heavy_rail",2023
285,"Lijiatuo Bridge",106.326712359072,29.6011867601793,"heavy_rail",2023
286,"Dianchang",106.348894189103,29.6019447407546,"heavy_rail",2023
287,"Sichuan Fine Arts Institute",106.367493261544,29.6018472608351,"heavy_rail",2023
288,"Huangjueping",106.44219190989,29.5794456461417,"heavy_rail",2023
289,"Tanzikou",106.456462520175,29.5583939719755,"heavy_rail",2023
290,"Yangjiaping",106.481927575696,29.5337373639967,"heavy_rail",2023
291,"Shipingqiao",106.506947960615,29.5381751475173,"heavy_rail",2023
292,"",106.544568710312,29.5526108234287,"heavy_rail",NA
293,"",106.569834886717,29.5434976363485,"heavy_rail",NA
294,"",106.569212930527,29.5271127810325,"heavy_rail",NA
295,"",106.638516588938,29.4976850753838,"heavy_rail",NA
296,"",106.215569190744,29.6271439643838,"heavy_rail",NA
297,"",106.206814108186,29.6518556364925,"heavy_rail",NA
298,"",106.207551851725,29.7041651558853,"heavy_rail",NA
299,"",106.215963279974,29.7256337614441,"heavy_rail",NA
300,"",106.14541337705,29.792097518201,"heavy_rail",NA
301,"",106.10626649357,29.8187683986074,"heavy_rail",NA
302,"",106.076088463079,29.8337390382557,"heavy_rail",NA
303,"",106.042832803648,29.828373551347,"heavy_rail",NA
304,"Daishan Avenue",106.457297682086,29.4188219335169,"commuter_rail",NA
305,"",106.434815932701,29.4107138564637,"commuter_rail",NA
306,"Qinglong Lake",106.477286821099,29.4190407854616,"commuter_rail",NA
307,"Main Road",106.431496829379,29.3956604730616,"commuter_rail",NA
308,"Pulu",106.487266566272,29.4184299422187,"commuter_rail",NA
309,"Tongliang New Town",106.50099032282,29.4272021127259,"commuter_rail",NA
310,"Tongliang",106.514483041832,29.4358821342886,"commuter_rail",NA
311,"Tongliang West",106.513115429525,29.4512252534124,"commuter_rail",NA
312,"Tiaodengnan",106.516843152518,29.4631976395602,"heavy_rail",2023
313,"Baijusi",106.523902929018,29.4711255909457,"heavy_rail",2023
314,"Olympic Sports Center",106.534530736194,29.4857137999174,"heavy_rail",2019
315,"Shiqiaopu",106.539528577275,29.4907365754857,"heavy_rail",2011
316,"Xietaizi",106.533856777959,29.498642170528,"heavy_rail",2023
317,"Fuhualu",106.524023988859,29.5023078762789,"heavy_rail",2022
