"nodeID","nodeLabel","longitud","latitud","mode","year"
1,"Kita-Senzoku",140.024812197129,35.6837744784723,"heavy_rail",1928
2,"Asakusa",140.042146725175,35.6726021159981,"heavy_rail",2005
3,"Kita-Senzoku",140.056077093286,35.6605591225961,"heavy_rail",1963
4,"Kita-Senzoku",140.066304589107,35.6526280375642,"heavy_rail",1979
5,"Hatanodai",140.085607402414,35.6378035803563,"heavy_rail",1927
6,"Hatanodai",140.097541917282,35.6249233138886,"heavy_rail",1963
7,"Hatanodai",140.102753500154,35.6177331376756,"heavy_rail",1979
8,"Ebaramachi",140.108423308341,35.6124401111584,"heavy_rail",1927
9,"Ebaramachi",140.114163525721,35.6116764132584,"heavy_rail",1963
10,"Shin-Kawasaki",140.11790921742,35.6073456342137,"heavy_rail",1980
11,"Ebaramachi",139.407335257754,35.3308420759485,"heavy_rail",1979
12,"Nakanobu",139.387369770554,35.3676319433543,"heavy_rail",1927
13,"Nakanobu",139.378381114923,35.394902404615,"heavy_rail",1963
14,"Nakanobu",139.378590071685,35.4437060502242,"heavy_rail",1979
15,"Togoshi-koen",139.407785749422,35.3391454136385,"heavy_rail",1927
16,"Togoshi-koen",139.379693098879,35.3818383297145,"heavy_rail",1963
17,"Urawa-Misono",139.377196952398,35.4206762965286,"heavy_rail",2001
18,"Togoshi-koen",139.797517024985,35.6776192961994,"heavy_rail",1979
19,"Yokohama",139.344893348162,35.5948275130914,"heavy_rail",1980
20,"Shimo-Shimmei",139.702745521033,35.6048633044026,"heavy_rail",1927
21,"Shimo-Shimmei",139.702754407914,35.6048715620953,"heavy_rail",1963
22,"Shimo-Shimmei",139.399980239621,35.3561511971056,"heavy_rail",1979
23,"Sasazuka",139.380438573639,35.4064475260865,"heavy_rail",1913
24,"Oimachi",139.693393311225,35.6062794186688,"heavy_rail",1927
25,"Hatogaya",139.792279361202,35.7129623058178,"heavy_rail",2001
26,"Oimachi",139.693410928582,35.6063025415793,"heavy_rail",1963
27,"Hatagaya",139.693404407463,35.6062892868315,"heavy_rail",1913
28,"Oimachi",139.702737903731,35.6048560789323,"heavy_rail",1979
29,"Hodogaya",139.6868113689,35.6518036811396,"heavy_rail",1980
30,"Shinjuku",139.707579598102,35.6038595195148,"heavy_rail",1915
31,"Chofu",139.707579598102,35.603873108968,"heavy_rail",1913
32,"Keio-Hachioji",139.707578205271,35.6038651817901,"heavy_rail",1925
33,"Higashi-Totsuka",139.644006071767,35.6315405632711,"heavy_rail",1980
34,"Shinagawa",139.712642630281,35.6057388115085,"heavy_rail",1980
35,"Nishi-Oi",139.712631567004,35.6057463072543,"heavy_rail",1986
36,"Musashi-Kosugi",139.712637075841,35.6057414614211,"heavy_rail",1980
37,"Araijuku",139.630743556621,35.620573026453,"heavy_rail",2001
38,"新橋 Shimbashi",139.718319462119,35.6089520074692,"heavy_rail",1980
39,"Kawaguchi-Motogo",139.718317682097,35.6089628614763,"heavy_rail",2001
40,"Minami-Hatogaya",139.727574533437,35.893947202522,"heavy_rail",2001
41,"Tozuka-Angyo",139.718329252441,35.6089628614763,"heavy_rail",2001
42,"Akihabara",139.599656180466,35.4466698607795,"heavy_rail",2005
43,"Higashi-Kawaguchi",139.72640663163,35.6087282482991,"heavy_rail",2001
44,"南千住 Minami-Senju",139.726417311945,35.6087456147612,"heavy_rail",2005
45,"Rokucho",139.726415531887,35.6087376551278,"heavy_rail",2005
46,"Aoi",139.667060607011,35.6736237607609,"heavy_rail",2005
47,"北千住 Kita-Senju",139.734376935435,35.6075521973055,"heavy_rail",2005
48,"Higashi-Murayama",139.736158529362,35.8308796730348,"heavy_rail",1894
49,"Hagiyama",139.734379164921,35.6075721361388,"heavy_rail",1928
50,"Seibu-Yuenchi",139.676972607007,35.6768526447407,"heavy_rail",1961
51,"Hitotsubashi-gakuen",139.734379164921,35.6075621667273,"heavy_rail",1928
52,"Ome-kaido",139.556688961886,35.4303305634843,"heavy_rail",1928
53,"Yasaka",139.699366051549,35.6895838766303,"heavy_rail",1942
54,"Hirayamajoshi-koen",139.544193490693,35.6518935595145,"heavy_rail",1925
55,"Kokuryo",139.343418816394,35.657712809965,"heavy_rail",1913
56,"Fuda",139.622494785156,35.4664949249976,"heavy_rail",1917
57,"Kinugasa",139.671699431259,35.5515665482534,"heavy_rail",1944
58,"Nishi-Chofu",139.739887463939,35.62842383275,"heavy_rail",1916
59,"Hatsudai",139.737217469229,35.8429846873534,"heavy_rail",1914
60,"Naganuma",139.73037761521,35.8004930047062,"heavy_rail",1925
61,"Fuchu",139.736193105047,35.8166349396147,"heavy_rail",1916
62,"Tobitakyu",139.753775911216,35.8588517572777,"heavy_rail",1916
63,"Daitabashi",139.774148176571,35.6983603284154,"heavy_rail",1913
64,"Meidaimae",139.744571280026,35.8755555249391,"heavy_rail",1913
65,"Shimo-Takaido",139.821893965896,35.7848592572192,"heavy_rail",1913
66,"Musashinodai",139.820354789524,35.7717354170481,"heavy_rail",1916
67,"Sakurajosui",139.465693406573,35.7599681057279,"heavy_rail",1926
68,"Kami-Kitazawa",139.477019546017,35.7407341682772,"heavy_rail",1913
69,"Kita-Kamakura",139.480124392958,35.7217857467046,"heavy_rail",1927
70,"Hachimanyama",139.476556753066,35.7306421975179,"heavy_rail",1918
71,"Tama-reien",139.629543623385,35.6171036319434,"heavy_rail",1916
72,"Roka-koen",139.467357730896,35.7451287645148,"heavy_rail",1913
73,"Chitose-Karasuyama",139.442572864712,35.7661746590008,"heavy_rail",1913
74,"Kitano",139.656582240407,35.6311003056145,"heavy_rail",1925
75,"Sengawa",139.380175865062,35.6475308570188,"heavy_rail",1913
76,"Higashi-Fuchu",139.681969770598,35.6493319574992,"heavy_rail",1916
77,"Tsutsujigaoka",139.558489492392,35.6502619563739,"heavy_rail",1913
78,"Shibasaki",139.67778649841,35.647086422547,"heavy_rail",1913
79,"Bubaigawara",139.667730818097,35.6392784605378,"heavy_rail",1925
80,"Nakagawara",139.665037469875,35.6357944202937,"heavy_rail",1925
81,"Shinsen-Shinjuku",139.551681498018,35.6499069113002,"heavy_rail",1978
82,"Seiseki-Sakuragaoka",139.661754324796,35.6335281325877,"heavy_rail",1925
83,"Mogusaen",139.661245213798,35.2570466505856,"heavy_rail",1925
84,"Takahatafudo",139.5301462543,35.6570167726215,"heavy_rail",1925
85,"Hatsudai",139.687590715918,35.6811905518279,"heavy_rail",1978
86,"Minamidaira",139.36602645065,35.6427814412339,"heavy_rail",1926
87,"Kamakura",139.480205670462,35.6721822498337,"heavy_rail",1889
88,"Hatagaya",139.52331770292,35.6601590825771,"heavy_rail",1978
89,"Ofuna",139.659596119467,35.671150739876,"heavy_rail",1889
90,"Zushi",139.650602967734,35.6683696106557,"heavy_rail",1889
91,"Yokosuka",139.642527419366,35.6660902938194,"heavy_rail",1889
92,"東京駅 Tokyoeki (Tokyo Railway Station)",139.510934657175,35.6642264954046,"heavy_rail",1980
93,"Kurihama",139.631823578281,35.6675713605487,"heavy_rail",1944
94,"Higashi-Zushi",139.623291473082,35.6688372558738,"heavy_rail",1952
95,"Taura",139.545203154278,35.3372832224706,"heavy_rail",1904
96,"Misato-chuo",139.616019632009,35.6698548065915,"heavy_rail",2005
97,"赤羽岩淵 Akabane-Iwabuchi",139.502644882203,35.6662184139664,"heavy_rail",1991
98,"Yashio",139.608894664099,35.6706619694476,"heavy_rail",2005
99,"Nagareyama-centralpark",139.600103862542,35.667776080888,"heavy_rail",2005
100,"Minami-Nagareyama",139.354182048084,35.6445464338716,"heavy_rail",2005
101,"Nagareyama-Otakanomori",139.584937555944,35.6623251866874,"heavy_rail",2005
102,"Kashiwanoha-campus",139.495267917729,35.6688632288477,"heavy_rail",2005
103,"Kashiwa-Tanaka",139.575260211569,35.6581056851928,"heavy_rail",2005
104,"Moriya",139.566696639143,35.6540968223836,"heavy_rail",2005
105,"Shiraitodai",139.468510410317,35.6685012004071,"heavy_rail",1917
106,"Koremasa",139.457954804916,35.6596104687048,"heavy_rail",1922
107,"Tama",139.698890111713,35.6885888961057,"heavy_rail",1917
108,"Kyoteijo-mae",139.447374641281,35.6508845938276,"heavy_rail",1922
109,"Shin-Koganei",139.431392454361,35.6574277532259,"heavy_rail",1917
110,"Musashi-Sakai",139.531351308538,35.3534441254436,"heavy_rail",1917
111,"Kokubunji",139.687048039308,35.6816814757688,"heavy_rail",1894
112,"Koigakubo",139.392457043932,35.6551022137314,"heavy_rail",1955
113,"Takanodai",139.550481573551,35.3190214976442,"heavy_rail",1948
114,"Ogawa",139.676805069017,35.6772309596629,"heavy_rail",1894
115,"Musashi-Yamato",139.578529809876,35.2976065022586,"heavy_rail",1930
116,"Shin-Sakuradai",139.655684569416,35.2839860803625,"heavy_rail",1983
117,"小竹向原 Kotake-mukaihara",139.701084400572,35.2329555046799,"heavy_rail",1983
118,"Toshimaen",139.601374667291,35.2988115966784,"heavy_rail",1927
119,"Ogawa",139.636969240268,35.2928312603749,"heavy_rail",1950
120,"Haijima",139.878377785512,35.8245245400387,"heavy_rail",1968
121,"Seibu-Tachikawa",139.844910724543,35.8077999902129,"heavy_rail",1968
122,"Musashi-Sunagawa",139.915254192185,35.8545344249616,"heavy_rail",1983
123,"Higashi-Yamatoshi",139.903404754297,35.8387371868287,"heavy_rail",1950
124,"Kodaira",139.925345132066,35.8721022361788,"heavy_rail",1928
125,"Hagiyama",139.952518154302,35.8933695365229,"heavy_rail",1928
126,"Tamagawa-Josui",139.957611610916,35.9109404276801,"heavy_rail",1950
127,"Omorikaigan",139.992382478444,35.9502602533844,"heavy_rail",1901
128,"Machida",139.50972214302,35.6664769958373,"heavy_rail",1908
129,"Keikyu-Kawasaki",139.48904729527,35.6562897309979,"heavy_rail",1901
130,"Uraga",139.517181068645,35.6770317466951,"heavy_rail",1930
131,"Shinagawa",139.499599833084,35.656160206615,"heavy_rail",1925
132,"Yabe",139.526718426284,35.6959590566582,"heavy_rail",1957
133,"Samezu",139.544206473211,35.7018919845749,"heavy_rail",1904
134,"Omorimachi",139.480239842586,35.700269036506,"heavy_rail",1952
135,"Higashi-Kaijin",139.46405465433,35.7112964531324,"heavy_rail",1996
136,"Zoshiki",139.461157451602,35.7233593413573,"heavy_rail",1901
137,"Aihara",139.46352795242,35.7375066790992,"heavy_rail",1908
138,"Tsurumi-ichiba",139.444230896598,35.7560593387935,"heavy_rail",1905
139,"Namamugi",139.66850091948,35.7409249280826,"heavy_rail",1905
140,"Kanagawa-shimmachi",139.463387405494,35.7375043390408,"heavy_rail",1915
141,"Hachioji",139.343939705652,35.7215629064216,"heavy_rail",1908
142,"Hinodecho",139.370003877043,35.7262538659324,"heavy_rail",1931
143,"Gumyoji",139.392524637649,35.7289639562961,"heavy_rail",1930
144,"Center-Minami",139.435083789571,35.7331910756729,"heavy_rail",1993
145,"Sugita",139.488301986018,35.7369813340159,"heavy_rail",1930
146,"Haijima",139.477118536092,35.7407391266092,"heavy_rail",1925
147,"Kanazawa-bunko",139.418355170301,35.7317260858977,"heavy_rail",1930
148,"Keikyu-Taura",139.686873598445,35.2632293031674,"heavy_rail",1930
149,"Hasama",139.646262148246,35.492442838782,"heavy_rail",1996
150,"Shioiri",139.600030318088,35.5085435290295,"heavy_rail",1930
151,"Musashi-Itsukaichi",140.042109836464,35.7215590594025,"heavy_rail",1925
152,"Horinouchi",139.28667625156,35.728078423398,"heavy_rail",1930
153,"Oguchi",139.797435954971,35.6713520390654,"heavy_rail",1947
154,"Kozukue",139.735408146469,35.5877580228189,"heavy_rail",1908
155,"Kumagawa",139.445006351032,35.542297214971,"heavy_rail",1931
156,"Tokaichiba",139.700803168265,35.5328707984679,"heavy_rail",1979
157,"Higashi-Akiru",139.715113022179,35.251326462535,"heavy_rail",1925
158,"Kita-Narashino",139.386190417614,35.5733167101176,"heavy_rail",1996
159,"Akigawa",139.742296083167,35.6050148279526,"heavy_rail",1925
160,"Musashi-Hikida",139.732031431148,35.5724970550142,"heavy_rail",1930
161,"Musashi-Masuko",139.9806377553,35.7059277240036,"heavy_rail",1925
162,"Funabashi-Nichidaimae",139.715150473879,35.5500481400463,"heavy_rail",1996
163,"Toyo-Katsutadai",139.331687772558,35.6069059520622,"heavy_rail",1996
164,"Maioka",139.68666745733,35.517852778075,"heavy_rail",1985
165,"Yachiyo-Midorigaoka",139.667783586789,35.4960113669006,"heavy_rail",1996
166,"Yachiyo-chuo",139.639991256707,35.4814138042987,"heavy_rail",1996
167,"Murakami",139.338786665823,35.655311222942,"heavy_rail",1996
168,"Isezakichojamachi",139.626671779511,35.445605074507,"heavy_rail",1972
169,"Kami-Ooka",139.596838987971,35.4243402924838,"heavy_rail",1972
170,"Azamino",139.574378752835,35.5457383389576,"heavy_rail",1993
171,"Kami-Nagaya",139.615619797161,35.3840137091757,"heavy_rail",1976
172,"Nippa",139.343345575628,35.7212084653746,"heavy_rail",1993
173,"Center-Kita",139.621586748925,35.3428515700238,"heavy_rail",1993
174,"Nakamachidai",139.625164047066,35.3008239276321,"heavy_rail",1993
175,"Kita Shin-Yokohama",140.022157826581,35.713994812757,"heavy_rail",1993
176,"Kishine-koen",139.662205129488,35.2802763155327,"heavy_rail",1985
177,"Katakuracho",139.228003241889,35.7322542632239,"heavy_rail",1985
178,"Mitsuzawa-kamicho",139.335356637412,35.7284705589472,"heavy_rail",1985
179,"Mitsuzawa-shimocho",139.516627040832,35.5262852739475,"heavy_rail",1985
180,"Takashimacho",139.31109514162,35.7259907486727,"heavy_rail",1976
181,"Sakuragicho",139.270099722812,35.7297072784193,"heavy_rail",1976
182,"Kannai",139.256311986211,35.73094471195,"heavy_rail",1976
183,"Bandobashi",140.05902273867,35.7269374899365,"heavy_rail",1972
184,"Nagatsuta",140.126219516297,35.715811431328,"heavy_rail",1908
185,"Kita-Shinagawa",139.550820402896,35.4025382442576,"heavy_rail",1904
186,"Koganecho",140.073093583724,35.7288619251862,"heavy_rail",1930
187,"Yokohama",140.103379760306,35.7278617476951,"heavy_rail",1930
188,"Kannai",140.118451636078,35.7237153392332,"heavy_rail",1964
189,"Yokohama",139.633058229627,35.4409562403459,"heavy_rail",1929
190,"Kobuchi",139.595977247066,35.4090492413965,"heavy_rail",1988
191,"Aomono-yokocho",139.553492551698,35.5682659705304,"heavy_rail",1904
192,"Heiwajima",139.572578384487,35.4014453672782,"heavy_rail",1901
193,"Yokohama",139.611927863385,35.5275930864441,"heavy_rail",1976
194,"Keikyu-Kamata",139.578274351498,35.553492314719,"heavy_rail",1901
195,"Sagamihara",139.589614545932,35.5353024930795,"heavy_rail",1941
196,"Hatchonawate",139.612751732033,35.5192702191043,"heavy_rail",1916
197,"Kagetsuen-mae",139.617100193365,35.4961156168717,"heavy_rail",1914
198,"Koyasu",139.630731405514,35.449760135006,"heavy_rail",1905
199,"Hachioji-Minamino",139.636752003691,35.4453133418184,"heavy_rail",1997
200,"Tobe",139.625152590034,35.4374724150998,"heavy_rail",1931
201,"Idogaya",139.738045110884,35.6283209304019,"heavy_rail",1930
202,"Byobugaura",139.49514913967,35.531704703008,"heavy_rail",1930
203,"Hiyoshi",139.739284599722,35.6223167943335,"heavy_rail",2008
204,"Nokendai",139.622938991807,35.4398783888083,"heavy_rail",1944
205,"Oppama",139.636027880432,35.4440669799659,"heavy_rail",1930
206,"Shin-Yokohama",139.62321187457,35.4661153356086,"heavy_rail",1985
207,"Hemi",139.419326473824,35.5559617439853,"heavy_rail",1930
208,"Hiyoshi-Honcho",139.743083965395,35.6088508874718,"heavy_rail",2008
209,"Kenritsudaigaku",139.734967531779,35.5787156809064,"heavy_rail",1930
210,"Maborikaigan",139.723801383994,35.5610252226911,"heavy_rail",1930
211,"Kikuna",139.370743845247,35.581431599852,"heavy_rail",1926
212,"Takata",139.69140235695,35.5230096626625,"heavy_rail",2008
213,"Kamoi",139.672981569349,35.5003941431524,"heavy_rail",1962
214,"Totsuka",139.645149169649,35.4846514246078,"heavy_rail",1987
215,"Higashi-Yamata",139.330887463507,35.6312374404089,"heavy_rail",2008
216,"Kita-Yamata",139.619551771759,35.4567412740783,"heavy_rail",2008
217,"Ishikawacho",139.600791196961,35.4339881521531,"heavy_rail",1964
218,"Center Kita",139.610266594056,35.3942564844783,"heavy_rail",2008
219,"Shonandai",139.646995634743,35.5533541094196,"heavy_rail",1999
220,"Center Minami",139.62942362743,35.360855548956,"heavy_rail",2008
221,"Tsuzuki-Fureai-no-Oka",139.624858289813,35.3157846975716,"heavy_rail",2008
222,"Kawawacho",139.617335216906,35.5090058140706,"heavy_rail",2008
223,"Nakayama",139.652852530142,35.2804891265909,"heavy_rail",2008
224,"Nakagawa",139.633659952333,35.550062548541,"heavy_rail",1993
225,"Yamate",139.676626779368,35.2701803808432,"heavy_rail",1964
226,"Isogo",139.707624010119,35.259615271656,"heavy_rail",1964
227,"Ofuna",139.630177568283,35.5096870119799,"heavy_rail",1973
228,"Negishi",139.619966408901,35.5496146165631,"heavy_rail",1964
229,"Shin-Sugita",139.567229961089,35.5109675830983,"heavy_rail",1970
230,"Kanagawa",139.5342424877,35.4007986510599,"heavy_rail",1905
231,"Shimbamba",139.604494849005,35.5541540458451,"heavy_rail",1904
232,"Hashimoto",139.592106494359,35.5610594726801,"heavy_rail",1908
233,"Tachiaigawa",139.642758789773,35.4392225303455,"heavy_rail",1904
234,"Umeyashiki",139.57867719334,35.553392514293,"heavy_rail",1901
235,"Rokugodote",139.466697484349,35.396340893644,"heavy_rail",1906
236,"Katakura",139.574806564164,35.5456114627165,"heavy_rail",1957
237,"Keikyu-Tsurumi",139.561334435372,35.5365503929659,"heavy_rail",1905
238,"Keikyu-Shinkoyasu",139.548943574728,35.5282059157336,"heavy_rail",1910
239,"Yoshinocho",139.540088223898,35.5147168228579,"heavy_rail",1972
240,"Nakakido",139.569951572954,35.5629889917838,"heavy_rail",1905
241,"Minami-Ota",139.646242790146,35.4273106943887,"heavy_rail",1930
242,"Kamiooka",139.617949674273,35.3999007525282,"heavy_rail",1930
243,"Maita",139.531004898557,35.3534861440573,"heavy_rail",1972
244,"Keikyu-Tomioka",139.635561177102,35.41572411475,"heavy_rail",1930
245,"Kanazawa-hakkei",139.619569066501,35.3865647079125,"heavy_rail",1930
246,"Anjinzuka",139.800627179066,35.6699825823586,"heavy_rail",1934
247,"Gumyoji",139.62015378727,35.4654251826615,"heavy_rail",1972
248,"Yokosuka-chuo",139.627060691403,35.4709771767239,"heavy_rail",1930
249,"Keikyu-Otsu",139.741494980818,35.6164792121415,"heavy_rail",1930
250,"Higashi-Kanagawa",139.344801670805,35.5946824680449,"heavy_rail",1908
251,"Konan-chuo",139.7389395502,35.5986684008918,"heavy_rail",1976
252,"Shin-Yokohama",139.728363236273,35.5669756454056,"heavy_rail",1964
253,"Nakayama",139.707640791376,35.5406527031063,"heavy_rail",1908
254,"Naruse",139.341631647364,35.6399009650497,"heavy_rail",1979
255,"Shimonagaya",139.677893240548,35.5073256682693,"heavy_rail",1985
256,"Fuchinobe",139.65545282872,35.4870965577841,"heavy_rail",1908
257,"Odoriba",139.61848759233,35.4353856411253,"heavy_rail",1999
258,"Nakada",139.63455892287,35.477249704848,"heavy_rail",1999
259,"Tateba",139.613569376321,35.4368420179102,"heavy_rail",1999
260,"Shimoiida",139.596682722922,35.4090370605518,"heavy_rail",1999
261,"Sakuragicho",139.609945042307,35.4299129111588,"heavy_rail",1915
262,"Yokodai",139.629740189841,35.367175548311,"heavy_rail",1970
263,"Shin-Kamagaya",139.620146000426,35.3313992946664,"heavy_rail",1991
264,"Konandai",139.642971149448,35.2867535173713,"heavy_rail",1973
265,"Hongodai",139.602068198375,35.4232207153458,"heavy_rail",1973
266,"Komuro",139.670685667336,35.2784006308715,"heavy_rail",1979
267,"Chiba Newtown Chuo",139.695890007929,35.2609119300133,"heavy_rail",1984
268,"Kita-Hatsutomi",139.633440502674,35.4778413432138,"heavy_rail",1979
269,"Inba-Nihon-Idai",139.590784745212,35.4010349778525,"heavy_rail",2000
270,"Keisei-Takasago",139.617259892207,35.5067966599401,"heavy_rail",1991
271,"Inzai-Makinohara",139.53946670973,35.5146909799048,"heavy_rail",1995
272,"Manganji",139.473017421134,35.5353048592778,"people_mover",2000
273,"Shin-Shibamata",139.558507521334,35.4020085744408,"heavy_rail",1991
274,"Kurihira",139.395026193045,35.5686026577801,"heavy_rail",1974
275,"Yagiri",139.518517958768,35.4057134843064,"heavy_rail",1991
276,"Kita-Kokubun",139.510963037045,35.4113213856274,"heavy_rail",1991
277,"Akiyama",139.500154793176,35.4143246501143,"heavy_rail",1991
278,"Satsukidai",139.482852036884,35.4036432446408,"heavy_rail",1974
279,"Higashi-Matsudo",139.63099762217,35.4510533787599,"heavy_rail",1991
280,"Inba-Nihon-Idai",139.596778203605,35.3787702178489,"heavy_rail",2010
281,"Tamagawa-Josui",139.998434880439,35.779523842887,"people_mover",1998
282,"Keisei-Ueno",139.576693636748,35.3752825206852,"heavy_rail",2010
283,"Keio-Yomiuri-Land",139.550202580097,35.3679116416591,"heavy_rail",1971
284,"Nippori",140.076251832515,35.7869413719912,"heavy_rail",2010
285,"Aoto",140.341448801831,35.5459543332349,"heavy_rail",2010
286,"Keisei Takasago",140.116558190279,35.8002491362664,"heavy_rail",1913
287,"Koshu-Kaido",139.992027937733,35.7774693759219,"people_mover",2000
288,"Higashi-Hanno",140.203473381846,35.7875975919176,"heavy_rail",1931
289,"Minami-Osawa",139.867338073018,35.7509919107441,"heavy_rail",1988
290,"Hachioji",140.16716639143,35.8035874951541,"heavy_rail",1931
291,"Haijima",139.867330787319,35.7510452807523,"heavy_rail",1931
292,"Higashi-Fussa",139.776396284995,35.7076559421378,"heavy_rail",1931
293,"Kamikitadai",139.779427783088,35.7073171488793,"people_mover",1998
294,"Hakonegasaki",139.781765911912,35.7070600294613,"heavy_rail",1931
295,"Shin-Yurigaoka",139.420088787737,35.6712651807285,"heavy_rail",1974
296,"Odakyu-Nagayama",139.879446929703,35.7510827342874,"heavy_rail",1974
297,"Tachikawa-Minami",139.48090730996,35.6059933636183,"people_mover",1998
298,"Karakida",139.899666737621,35.7572567050843,"heavy_rail",1990
299,"Haruhino",139.913944606827,35.7629457118564,"heavy_rail",2004
300,"Shibasaki-Taiikukan",139.930753092109,35.7652804624984,"people_mover",2000
301,"Kurokawa",139.493613423759,35.6001435838395,"heavy_rail",1974
302,"Matsugaya",139.943158734731,35.7699639829789,"people_mover",2000
303,"Otsuka Teikyo-Daigaku",140.203484427615,35.787631078728,"people_mover",2000
304,"Kokudo",139.417998381173,35.7318091171574,"heavy_rail",1930
305,"Chuo-Daigaku-Meisei-Daigaku",139.771242389537,35.7280778496844,"people_mover",2000
306,"Tachikawa-Kita",139.517386142944,35.6330296056123,"people_mover",1998
307,"Tama-Dobutsukoen",139.856089616271,35.7457047849909,"people_mover",2000
308,"Hodokubo",139.409189449443,35.6783152355042,"people_mover",2000
309,"Sakura-Kaido",139.326105045359,35.8526034059058,"people_mover",1998
310,"Takahatafudo",139.379742572718,35.6140957435372,"people_mover",2000
311,"Takamatsu",139.338913884502,35.6556931942861,"people_mover",1998
312,"Bentembashi",139.343664816836,35.7214665148697,"heavy_rail",1930
313,"Tachihi",139.336106739161,35.7459243601578,"people_mover",1998
314,"Anamori-Inari",139.415788454347,35.7460531660124,"heavy_rail",1902
315,"Izumi-Taiikukan",139.346711488544,35.7713636871177,"people_mover",1998
316,"Sunagawa-Nanaban",139.507466584202,35.6039210757793,"people_mover",1998
317,"Anamori",139.4482083648,35.6299358105283,"heavy_rail",1902
318,"Hama-Kawasaki",139.412461378717,35.6958802602037,"heavy_rail",1930
319,"Tsurumi",139.411648979208,35.6166677641809,"heavy_rail",1930
320,"Okawa",139.464616150475,35.6187491974617,"heavy_rail",1930
321,"Musashi-Shiraishi",139.409425979515,35.6899672055423,"heavy_rail",1931
322,"Tsurumi-Ono",139.470794425924,35.6131075838138,"heavy_rail",1936
323,"Anzen",139.422225566343,35.6319554206887,"heavy_rail",1930
324,"Asano",139.416392712751,35.636920044516,"heavy_rail",1930
325,"Showa",139.675598969294,35.5008455469898,"heavy_rail",1931
326,"Rokugobashi",139.408449846754,35.6420231088846,"heavy_rail",1899
327,"Keikyu-Kawasaki",139.412546832716,35.6992650478923,"heavy_rail",1902
328,"Minatocho",139.403750023685,35.6484516844189,"heavy_rail",1932
329,"Suzukicho",139.410801403942,35.6553867053431,"heavy_rail",1929
330,"Kawasaki-Daishi",139.416713643061,35.7387723002071,"heavy_rail",1899
331,"Matsuhidai",139.41528558667,35.661523270659,"heavy_rail",1991
332,"Kodama",139.413288744807,35.7101624135323,"heavy_rail",1931
333,"Omachi",139.689404111744,35.4957555951857,"heavy_rail",1991
334,"Nishi-Shiroi",139.417136900952,35.7143872644747,"heavy_rail",1979
335,"Matsuhisa",139.419703174057,35.7184683524904,"heavy_rail",1933
336,"Keisei-Takasago",139.418147868079,35.7231001621261,"heavy_rail",2010
337,"寄居  Yorii",139.713780215375,35.5099286797199,"heavy_rail",1933
338,"Higashi-Matsudo",139.675902570546,35.5086816167769,"heavy_rail",2010
339,"Shin-Kamagaya",139.711177425975,35.4955213209791,"heavy_rail",2010
340,"Chiba Newtown Chuo",139.706083557564,35.5017903925321,"heavy_rail",2010
341,"Ogose",139.68120486929,35.4969848872017,"heavy_rail",1933
342,"Narita Yukawa",139.700862977986,35.4996380273345,"heavy_rail",2010
343,"Wakabadai",139.695582312052,35.4975457956891,"heavy_rail",1974
344,"Narita Airport Terminal 1",139.724096784899,35.5066218713537,"heavy_rail",2010
345,"Kita-Hachioji",139.707777697427,35.5357959769918,"heavy_rail",1959
346,"Seibu-en",139.70095357438,35.5327615809731,"heavy_rail",1930
347,"Higashi-Murayama",139.712361558452,35.5350648781194,"heavy_rail",1930
348,"Odakyu-Tama-Center",139.720636786486,35.5354230082525,"heavy_rail",1975
349,"Nishi-Tokorozawa",139.725972507169,35.5357530873275,"heavy_rail",1929
350,"Komiya",139.747102205533,35.5502063510694,"heavy_rail",1931
351,"Shimo-Yamaguchi",139.773539002212,35.7109594338609,"heavy_rail",1929
352,"Seibu-Kyujo-mae",139.299402353768,35.9623770137684,"heavy_rail",1929
353,"Kuragano",139.957512330889,35.775349138532,"heavy_rail",1931
354,"Kaneko",139.135989703134,36.1925705109616,"heavy_rail",1931
355,"Kita-Fujioka",139.973542108386,35.7751625974258,"heavy_rail",1961
356,"Gunma-Fujioka",140.031723103542,35.7843870442626,"heavy_rail",1931
357,"Tansho",139.182523942059,36.1727384994172,"heavy_rail",1931
358,"Komagawa",139.867336819156,35.7510110171984,"heavy_rail",1933
359,"Chofu",139.94309877322,35.7700156846482,"heavy_rail",1916
360,"Moro",139.998407143001,35.7796185811866,"heavy_rail",1933
361,"Myokaku",140.116484043847,35.8003216075536,"heavy_rail",1934
362,"Ogimachi",140.291356218045,35.7995624046148,"heavy_rail",1930
363,"Ogawamachi",139.419237319308,35.7704848978745,"heavy_rail",1934
364,"Keio-Tamagawa",139.472485397472,35.6193776574456,"heavy_rail",1916
365,"Takezawa",139.363305698158,35.6693179815416,"heavy_rail",1934
366,"Orihara",139.448490543159,35.7678707405918,"heavy_rail",1934
367,"Keio-Nagayama",139.465696411836,35.7599829632557,"heavy_rail",1974
368,"Yodo",139.424515032682,35.6250336955336,"heavy_rail",1933
369,"Keio-Tama-Center",139.456158175518,35.7887698647581,"heavy_rail",1974
370,"Hashimoto",139.368943413906,35.6855215646116,"heavy_rail",1990
371,"Keio-Inadazutsumi",139.440797371895,35.779270864408,"heavy_rail",1971
372,"Keio-Horinouchi",139.049015868897,36.3003785787818,"heavy_rail",1988
373,"Inagi",139.328590270039,35.8109890332433,"heavy_rail",1974
374,"Tamasakai",139.081024416839,36.2823478081679,"heavy_rail",1991
375,"Shin-Shibaura",139.08341460313,36.2501618312575,"heavy_rail",1940
376,"Tama-Center",139.103412712978,36.216027931427,"people_mover",2000
377,"Umi-Shibaura",139.338012096573,35.8963604455856,"heavy_rail",1940
378,"Ome",139.544173668413,35.651833780673,"heavy_rail",1894
379,"Kojiya",139.309441896787,35.9403646413181,"heavy_rail",1902
380,"Hinatawada",139.288935526299,36.0032283855291,"heavy_rail",1898
381,"Nakagami",139.722374030868,35.5016493036591,"heavy_rail",1908
382,"Haneda Airport International Terminal",139.260772628243,36.0590340554792,"heavy_rail",2010
383,"Miyanohira",139.537047550307,35.6448705801634,"heavy_rail",1923
384,"Ozaku",139.230193286819,36.0755146034383,"heavy_rail",1894
385,"Ushihama",139.195313565813,36.0962497958523,"heavy_rail",1943
386,"Ishigamimae",139.448365708798,35.6302516817264,"heavy_rail",1928
387,"Mitake",139.201084168243,36.1534208285465,"heavy_rail",1929
388,"Sawai",139.42442946558,35.6253411960852,"heavy_rail",1929
389,"Hatonosu",139.344621875281,35.5944724778637,"heavy_rail",1944
390,"Kagohara",139.53157648968,35.63404945166,"heavy_rail",1909
391,"Honjo",139.400550075505,35.6246077720644,"heavy_rail",1883
392,"東京駅 Tokyoeki (Tokyo Railway Station)",139.500460168246,35.6362507763691,"high_speed_rail",1964
393,"Odawara",139.367018316963,35.6019289016872,"high_speed_rail",1964
394,"Nishi-Tachikawa",139.700141114309,35.4919881321479,"heavy_rail",1931
395,"Otorii",139.422776984417,35.623724312068,"heavy_rail",1902
396,"Haneda Airport International Terminal",139.70078082167,35.4861210480685,"people_mover",2010
397,"Okutama",139.737512105224,35.7591238450738,"heavy_rail",1944
398,"Futamatao",139.258357082288,35.7905770363702,"heavy_rail",1920
399,"Akishima",139.729484183411,35.5546799820522,"heavy_rail",1938
400,"Kabe",139.22974504469,35.7881841656763,"heavy_rail",1927
401,"Fussa",139.376167193379,35.7089197092497,"heavy_rail",1894
402,"Kawai",139.767543810912,35.5448135068227,"heavy_rail",1944
403,"Shiromaru",139.237505094,35.7877994960801,"heavy_rail",1944
404,"Takasaki",139.302104127463,35.7761963800551,"heavy_rail",1884
405,"Fukaya",139.33360836247,35.7345384334169,"heavy_rail",1883
406,"Jimbohara",139.128513340404,35.815114973577,"heavy_rail",1897
407,"Shin-Yokohama",139.182782612022,35.8015208156549,"high_speed_rail",1964
408,"Higashi-Nakagami",139.193638371079,35.8058625512386,"heavy_rail",1942
409,"Haijima",139.330567732211,36.174474914063,"heavy_rail",1894
410,"Hamura",139.188314374674,36.2360669242228,"heavy_rail",1894
411,"Keikyu Kamata",139.225265314524,35.7966040368914,"heavy_rail",1902
412,"Higashi-Ome",139.393681784957,35.7035282205191,"heavy_rail",1932
413,"Haneda Airport Domestic Terminal",139.739453879999,35.5526396411903,"heavy_rail",1998
414,"Tachikawa",139.096740132152,35.8094077747142,"heavy_rail",1894
415,"Ikusabata",139.768530514967,35.5440987778239,"heavy_rail",1929
416,"Kori",139.114714851991,35.8119602826884,"heavy_rail",1944
417,"Shinmachi",139.164166721035,35.8137147718553,"heavy_rail",1883
418,"Okabe",139.215971872235,35.8042364007712,"heavy_rail",1909
419,"Kuragano",139.012371493457,36.3222833704904,"heavy_rail",1894
420,"Shinagawa",139.360910791337,35.7136137843081,"high_speed_rail",1964
421,"Omiya",139.285003769008,35.7843305095325,"heavy_rail",1985
422,"Omiya",139.32783069913,35.7423120236404,"high_speed_rail",1982
423,"Omiya",139.281035935174,36.191536875881,"high_speed_rail",1982
424,"Takasaki",139.149432525478,36.2535421668805,"high_speed_rail",1982
425,"Honjo-Waseda",139.617148554448,35.5069688060579,"high_speed_rail",1982
426,"Sengakuji",139.740021028811,35.6283854365051,"light_rail",1919
427,"Takanawakitamachi",139.384217905237,35.7064492083602,"light_rail",1903
428,"Iriya",139.343379459544,35.7212549848774,"heavy_rail",1935
429,"Shinohashi",139.316159744624,35.7582324684869,"light_rail",1908
430,"Harataima",139.723974421956,35.5610180650041,"heavy_rail",1931
431,"Shinagawa-Ekimae",139.272624504815,35.7898552061468,"light_rail",1903
432,"新橋 Shimbashi",139.413470308001,35.6981804560842,"light_rail",1903
433,"Akabanebashi",139.151684064078,35.8163756046627,"light_rail",1909
434,"Mita",139.786512040896,35.5499316293596,"light_rail",1903
435,"Kanasugibashi",139.105615800471,36.2729964329053,"light_rail",1914
436,"Furukawabashi",139.237560741496,36.2058198303041,"light_rail",1908
437,"Tokyo-koko",139.049248365888,36.3004331141241,"light_rail",1903
438,"Kami-Osaki",139.207611208732,35.8076138364444,"light_rail",1913
439,"Kanasugibashi",139.623144531632,35.9061907674984,"light_rail",1903
440,"Gyoranzakashita",139.389392381041,35.4543066139116,"light_rail",1913
441,"Furukawabashi",140.396164784016,35.579852141598,"light_rail",1913
442,"Daimon",139.739372100147,35.6374313898805,"light_rail",1903
443,"Hamamatsucho-itchome",139.737689674954,35.6319058764273,"light_rail",1903
444,"Shinbashi-gochome",139.391742171745,35.4786426545334,"light_rail",1903
445,"熊谷  Kumagaya",139.73228029423,35.6474378683554,"high_speed_rail",1982
446,"Fudanotsuji",139.375169203682,35.5292323038515,"light_rail",1903
447,"Ebina",139.737587932661,35.6281580238894,"heavy_rail",1987
448,"Sobudaishita",139.744832912761,35.6542214523313,"heavy_rail",1931
449,"Shimomizo",139.749461075317,35.6478142135988,"heavy_rail",1931
450,"Tengenjibashi",139.753933757018,35.6527639794222,"light_rail",1908
451,"Banda",139.736117834216,35.6467938401711,"heavy_rail",1931
452,"Sengakujimae",139.752841143629,35.6488522045381,"light_rail",1903
453,"Mita",139.719291767374,35.634642095191,"light_rail",1903
454,"Tamachikyuchomae",139.75423112115,35.6527116395861,"light_rail",1903
455,"Nishi-Omiya",139.736099732355,35.644394103063,"heavy_rail",2009
456,"Kamimizo",139.736110309578,35.6467496514012,"heavy_rail",1931
457,"Matoba",139.75477574806,35.6566371669446,"heavy_rail",1940
458,"Komagawa",139.755302661712,35.6600578381777,"heavy_rail",1940
459,"Takanawaitchome",139.757879677712,35.663429907656,"light_rail",1919
460,"Kashiwa",139.744187828782,35.64503129885,"heavy_rail",1911
461,"Minami-Hashimoto",139.386207807201,35.4931931282242,"heavy_rail",1932
462,"Tsukada",139.380671959331,35.5181913339796,"heavy_rail",1923
463,"Shin-Kamagaya",139.722823274722,35.6483931452762,"heavy_rail",1999
464,"Sakasai",139.363102064677,35.5453490804113,"heavy_rail",1931
465,"Azabujuban",139.739430922498,35.6374237247467,"light_rail",1908
466,"Toyoshiki",139.749429140608,35.647869842278,"heavy_rail",1911
467,"Edogawadai",139.740825239534,35.6400729468741,"heavy_rail",1958
468,"Atago",139.371260031271,35.9017433338517,"heavy_rail",1929
469,"Shibazonobashi",139.579937582369,35.9223854151242,"light_rail",1911
470,"Kawama",139.363258486746,35.5576750513837,"heavy_rail",1930
471,"Kasukabe",139.435637153707,35.9176571235216,"heavy_rail",1929
472,"Higashi-Iwatsuki",139.338148912122,35.8963657845995,"heavy_rail",1969
473,"Azabunakanohashi",139.737434818644,35.6416098126933,"light_rail",1909
474,"Owada",139.970548530452,35.8620321003351,"heavy_rail",1929
475,"Sannohashi",139.352439108895,35.580154063042,"light_rail",1908
476,"Korinjimae",139.982516379149,35.7216780342536,"light_rail",1908
477,"Meguro-Ekimae",139.999524526884,35.7802775840795,"light_rail",1914
478,"Shirokanedaicho",139.983816219461,35.8231843685925,"light_rail",1913
479,"Hiyoshizakaue",139.737148602267,35.6553338345062,"light_rail",1913
480,"Seishokomae",139.939358740247,35.8665224013265,"light_rail",1913
481,"Gyoranzakashita",139.910373161816,35.8974067318058,"light_rail",1913
482,"Nisshin",139.864657959119,35.9505361830199,"heavy_rail",1985
483,"Minami-Furuya",139.749311337068,35.6525452418189,"heavy_rail",1940
484,"Nishi-Kawagoe",139.834115537085,35.9792182037647,"heavy_rail",1940
485,"Musashi-Takahagi",139.752085528673,35.9798891779598,"heavy_rail",1940
486,"Funabashi",139.712244570627,35.963294751762,"heavy_rail",1923
487,"Shin-Funabashi",139.741175693004,35.6545728275218,"heavy_rail",1956
488,"Kamagaya",139.650625926846,35.9292264648468,"heavy_rail",1923
489,"Takayanagi",139.736816452822,35.6489658400321,"heavy_rail",1923
490,"Shin-Kashiwa",139.727692783207,35.6468456785726,"heavy_rail",1983
491,"Hatsuishi",139.716159376752,35.6337312815398,"heavy_rail",1911
492,"Umesato",139.723926447784,35.636918480133,"heavy_rail",1911
493,"Nanakodai",139.727300495131,35.6384815756235,"heavy_rail",1968
494,"Fujino-Ushijima",139.732101695584,35.6403063427796,"heavy_rail",1930
495,"Toyoharu",139.736129119606,35.6444079651488,"heavy_rail",1929
496,"Nanasato",139.760094519312,35.7105621889681,"heavy_rail",1929
497,"Kita-Omiya",139.759450342749,35.7129021117353,"heavy_rail",1930
498,"Omiya",140.156996539751,35.7220164428854,"heavy_rail",1940
499,"Sashiogi",139.758369742049,35.7168429268673,"heavy_rail",1940
500,"Kawagoe",140.155310582541,35.7257563734512,"heavy_rail",1940
501,"Kasahata",140.153770054212,35.7306242987937,"heavy_rail",1940
502,"Nodashi",139.606020704808,35.9315137167145,"heavy_rail",1911
503,"Omiya",139.519784339187,35.9033931782522,"heavy_rail",1929
504,"Magomezawa",139.459441716186,35.9192620891895,"heavy_rail",1923
505,"Mutsumi",139.985036582383,35.7019025124222,"heavy_rail",1923
506,"Masuo",139.979807365177,35.7113897771416,"heavy_rail",1923
507,"Nagareyama-Otakanomori",139.997318414672,35.7640442362013,"heavy_rail",2005
508,"Unga",139.998909862479,35.8086123909014,"heavy_rail",1911
509,"Shimizu-koen",139.966600418639,35.8385330112079,"heavy_rail",1929
510,"Minami-Sakurai",139.917766113738,35.8840272658769,"heavy_rail",1930
511,"Yagisaki",139.891262069431,35.9312791524165,"heavy_rail",1929
512,"Iwatsuki",139.852976477429,35.9705014019685,"heavy_rail",1929
513,"Omiya-koen",139.777899145976,35.9802287842223,"heavy_rail",1929
514,"Takifudo",139.726241326011,35.9680357039847,"heavy_rail",1948
515,"Keisei-Tsudanuma",139.66576586717,35.9363974810799,"heavy_rail",1953
516,"Kamihongo",139.624812599148,35.9176053027527,"heavy_rail",1955
517,"Matsudo-Shinden",139.565154596087,35.9171106181296,"heavy_rail",1955
518,"Minoridai",139.483041191636,35.9069011168826,"heavy_rail",1955
519,"Yakuendai",139.406433743072,35.9076589496034,"heavy_rail",1947
520,"Hatsutomi",139.870709961828,35.943695080591,"heavy_rail",1949
521,"Shin-Tsudanuma",139.992250032671,35.7415499792453,"heavy_rail",1947
522,"Matsudo",139.99924552249,35.7937912355873,"heavy_rail",1955
523,"Yabashira",139.976778923086,35.8295686970456,"heavy_rail",1955
524,"Tokiwadaira",139.925596234106,35.8721476517484,"heavy_rail",1955
525,"Maebara",139.906032212357,35.9143062460891,"heavy_rail",1955
526,"Goko",139.860021307671,35.959051591377,"heavy_rail",1955
527,"Motoyama",139.808150377162,35.9804904644998,"heavy_rail",1955
528,"Kunugiyama",139.742210662092,35.9785224330552,"heavy_rail",1955
529,"Kita-Hatsutomi",139.692961538808,35.9501419967554,"heavy_rail",1955
530,"Shin-Kamagaya",139.632979549191,35.9238441759719,"heavy_rail",1991
531,"Kamagaya-Daibutsu",140.154931338926,35.7382570373767,"heavy_rail",1949
532,"Futawamudodai",139.624283386435,35.907804075393,"heavy_rail",1949
533,"Misaki",140.026068019353,35.737913849015,"heavy_rail",1949
534,"Takanekodan",140.024608900015,35.6838320685009,"heavy_rail",1961
535,"Takanekido",139.916180224405,35.7896557988547,"heavy_rail",1948
536,"Kita-Narashino",139.922719634042,35.7906226539352,"heavy_rail",1966
537,"Narashino",139.929175622807,35.7893301518753,"heavy_rail",1948
538,"Seishokomae",140.037787350394,35.7101383799613,"light_rail",1927
539,"Onarimon",140.000423367467,35.7721013122447,"light_rail",1911
540,"神谷町 Kamiyacho",140.023748467494,35.6901519010737,"light_rail",1911
541,"Iikurakatamachi",139.900870421799,35.7841459796008,"light_rail",1911
542,"Roppongi-gochome",139.937644396816,35.791614078958,"light_rail",1911
543,"六本木 Roppongi",139.950108577698,35.8033715300055,"light_rail",1911
544,"Tsukishimadori-hatchome",140.027746870976,35.7008884891501,"light_rail",1923
545,"Hibiya-koen",139.966055434343,35.7969608186361,"light_rail",1904
546,"Mita",139.975801706923,35.7902737963481,"light_rail",1904
547,"Shibazonobashi",139.975710178241,35.7821746348867,"light_rail",1904
548,"Onarimon",139.992062014647,35.7771724464467,"light_rail",1904
549,"Tamuracho-yonchome",139.99856996213,35.779091439358,"light_rail",1904
550,"Shiba-koen",140.013797519987,35.7578804839003,"light_rail",1904
551,"Tamuracho-itchome",140.023671195368,35.7538788210484,"light_rail",1904
552,"Uchisaiwaicho",140.028459805378,35.7490488919051,"light_rail",1904
553,"Higashi-Azabu-itchome",140.029582434081,35.7301901502854,"light_rail",1912
554,"Akabanebashi",140.034701119228,35.7266502046083,"light_rail",1912
555,"Keiogishukumae",140.042281520566,35.7213675117099,"light_rail",1912
556,"Mita-nichome",140.042687554547,35.7149673727914,"light_rail",1912
557,"Fudanotsuji",139.777373551029,35.7117766738858,"light_rail",1912
558,"Iikura-itchome",139.781528681703,35.7115620286704,"light_rail",1912
559,"Yokohama",139.715122718973,35.7493575454476,"heavy_rail",1872
560,"Hamamatsucho-itchome",139.631078008378,35.4509933884882,"light_rail",1915
561,"Nihon-Enoki",139.759529389339,35.674898468121,"light_rail",1927
562,"Iikura-itchome",139.748845310824,35.6477456790004,"light_rail",1911
563,"Akasaka-hatchome",139.749680462218,35.6525064861537,"light_rail",1912
564,"青山一丁目 Aoyama-itchome",139.751844872187,35.661555636779,"light_rail",1912
565,"Omiya",139.753092851678,35.6643579230831,"commuter_rail",1885
566,"Shirokane-Sarucho",139.750455461333,35.6577012004474,"light_rail",1927
567,"Hakachishita",139.754865855824,35.6681417861483,"light_rail",1906
568,"Kita-Aoyama-itchome",139.756359215309,35.6708692362773,"light_rail",1906
569,"Tengenjibashi",139.78455173594,35.7110271626744,"light_rail",1924
570,"Hiroo-itchome",139.743716194896,35.6579367092915,"light_rail",1924
571,"新橋 Shimbashi",139.745160184064,35.6541124713845,"light_rail",1909
572,"Minami-Sakumacho",139.744879413,35.6501512034825,"light_rail",1909
573,"Shiodome",139.744576879547,35.6479443039772,"light_rail",1909
574,"Roppongi",139.744205860702,35.6452388839704,"light_rail",1914
575,"Aoyama-rokuchome",139.74365672244,35.6611876783498,"light_rail",1914
576,"Aoyama-minamicho",139.787804673554,35.7104287897431,"light_rail",1914
577,"Takagicho",139.791945236653,35.7111970837507,"light_rail",1914
578,"Kasumicho",139.796245512515,35.7108845568184,"light_rail",1914
579,"Zaimokucho",139.80221271421,35.7085244104551,"light_rail",1914
580,"Fukuyoshicho",139.813289122691,35.7179848684965,"light_rail",1925
581,"Imaicho",139.818241743258,35.7224089917172,"light_rail",1925
582,"Hiroobashi",139.70579008105,35.760861731513,"light_rail",1906
583,"Gotanda-ekimae",139.690983255139,35.7801110142922,"light_rail",1933
584,"Akajujibyoinshita",140.457749351291,35.6359488215279,"light_rail",1906
585,"Nishi-Azabu",139.782649511794,35.7113574158792,"light_rail",1906
586,"Minami-Aoyama-itchome",139.79761413741,35.7107331679702,"light_rail",1906
587,"Shibuya-ekimae",139.736375470278,35.6653257403501,"light_rail",1921
588,"Namikibashi",139.732589325269,35.640254053751,"light_rail",1921
589,"Higashi-nichome",139.751762449569,35.6608764636559,"light_rail",1921
590,"Shibuyabashi",139.74015426661,35.660329344605,"light_rail",1921
591,"Nishi-Shinbashi-itchome",139.734603393702,35.6622704138439,"light_rail",1909
592,"虎ノ門 Toranomon",139.75531652037,35.6601770225737,"light_rail",1909
593,"Tameike",139.731823916625,35.6637664748665,"light_rail",1925
594,"Tengenjibashi",139.745039284105,35.6630868031104,"light_rail",1906
595,"Tsuruma",139.731348238496,35.6355775842835,"heavy_rail",1929
596,"Higashi-Rinkan",139.743484578296,35.6612532414918,"heavy_rail",1929
597,"Sagami-Ono",139.727018804815,35.6687692933667,"heavy_rail",1938
598,"Minami-Rinkan",139.724554296189,35.6717377853273,"heavy_rail",1929
599,"Chuo-Rinkan",139.811463726091,35.6693583018894,"heavy_rail",1929
600,"Yamato",139.624346244575,35.9063157788446,"heavy_rail",1929
601,"Sakuragaoka",139.816538445962,35.669594848344,"heavy_rail",1952
602,"Koza-Shibuya",139.73948051664,35.6676070938463,"heavy_rail",1929
603,"Chogo",139.796292712611,35.6760788126507,"heavy_rail",1929
604,"Shonandai",139.794883592541,35.6725121699261,"heavy_rail",1966
605,"Mutsuai-Nichidaimae",139.730473836462,35.6319554247975,"heavy_rail",1929
606,"Zengyo",139.815934118923,35.6793298628083,"heavy_rail",1960
607,"Fujisawa-Hommachi",139.723506434208,35.6619027814556,"heavy_rail",1929
608,"Fujisawa",139.723951243562,35.6727264883853,"heavy_rail",1929
609,"Hon-Kugenuma",139.722772806695,35.6476860049765,"heavy_rail",1929
610,"Kugenuma-Kaigan",139.76237535632,35.6666143344587,"heavy_rail",1929
611,"Katase-Enoshima",139.732748898605,35.6635096920218,"heavy_rail",1929
612,"Minatomirai",139.710675258388,35.6631454143425,"heavy_rail",2004
613,"Shin-Takashima",139.71377947322,35.6615026145742,"heavy_rail",2004
614,"Nihon-odori",139.718257612915,35.659677195631,"heavy_rail",2004
615,"Abiko",139.723239672503,35.6597769001621,"heavy_rail",1901
616,"Higshi-Abiko",139.728259755126,35.6614470704278,"heavy_rail",1950
617,"Kohoku",139.722348573927,35.6505724948635,"heavy_rail",1901
618,"Araki",139.816447952736,35.6696238048937,"heavy_rail",1958
619,"Fusa",139.721073531694,35.6772114061458,"heavy_rail",1901
620,"Yokohama",139.816299515952,35.6720369349057,"heavy_rail",2004
621,"Bashamichi",139.816032204277,35.6813354400145,"heavy_rail",2004
622,"Motomachi-Chukagai",139.816116277328,35.6831611211423,"heavy_rail",2004
623,"Kioroshi",139.815942737857,35.6867876433776,"heavy_rail",1901
624,"Kobayashi",139.720049958837,35.684964933627,"heavy_rail",1901
625,"Ajiki",139.815980601273,35.6756392468566,"heavy_rail",1901
626,"Shimosa-Manzaki",139.751692604022,35.6696281586703,"heavy_rail",1901
627,"Narita",139.760280027792,35.6667813876887,"heavy_rail",1897
628,"Shisui",139.815678021288,35.6896549949438,"heavy_rail",1897
629,"Higashi-Monzen",139.815314824519,35.6928849354485,"heavy_rail",1944
630,"Sangyodoro",139.7234596367,35.6267512694456,"heavy_rail",1944
631,"泉岳寺 Sengakuji",139.70228205523,35.683867895284,"heavy_rail",1968
632,"Kojimashinden",139.723862233767,35.6563735753581,"heavy_rail",1944
633,"Shiohama",139.723314062329,35.6603214103082,"heavy_rail",1944
634,"Iriezaki",139.72419587964,35.6676047412355,"heavy_rail",1944
635,"Sakuramoto",139.702847115278,35.6586444670915,"heavy_rail",1944
636,"Onda",139.705937238708,35.6557519749905,"heavy_rail",2000
637,"Kuzumi",139.708689735334,35.653234269906,"heavy_rail",1902
638,"Izumi-chuo",139.711161187766,35.6491002792132,"heavy_rail",1990
639,"Shonandai",139.743456683095,35.6707294650569,"heavy_rail",1999
640,"Futamatagawa",139.722853581188,35.6483969644699,"heavy_rail",1976
641,"Minami-Makigahara",139.451023499746,35.4898974735613,"heavy_rail",1976
642,"Ryokuen-toshi",139.439092355635,35.5202041285718,"heavy_rail",1976
643,"Yayoidai",139.437492886243,35.5318096834125,"heavy_rail",1976
644,"Yumegaoka",139.448358305726,35.4949969570899,"heavy_rail",1999
645,"Hiranumabashi",139.444125939411,35.507450073109,"heavy_rail",1931
646,"Hoshikawa",139.461429590609,35.4698898539724,"heavy_rail",1927
647,"Nagatsuta",139.46578813845,35.4505954974972,"heavy_rail",1967
648,"Kodomonokuni",139.464703471165,35.4318550384445,"heavy_rail",1967
649,"Kagenuma",139.465475732877,35.4125313443595,"light_rail",1902
650,"Namegawa",139.466588040217,35.3963271903773,"heavy_rail",1897
651,"Tobu Dobutsu-Koen",139.4706505387,35.3841237357967,"heavy_rail",1929
652,"Sugito-Takanodai",139.473274337516,35.3629223723856,"heavy_rail",1986
653,"Koshigoe",139.475989221924,35.3480981814864,"light_rail",1903
654,"Satte",139.486415580674,35.3386270750491,"heavy_rail",1929
655,"Minami-Kurihashi",139.47511075517,35.3308384382846,"heavy_rail",1986
656,"Kurihashi",139.47117334811,35.3208245509565,"heavy_rail",1929
657,"Inamuragasaki",139.483429037582,35.3088784255235,"light_rail",1904
658,"Shin-Koga",139.642099569117,35.4471087201471,"heavy_rail",1935
659,"Yagyu",139.631850234675,35.4584404213465,"heavy_rail",1929
660,"Itakura Toyodai-mae",140.010806114037,35.8728390364873,"heavy_rail",1997
661,"Yuigahama",140.047660996136,35.8690073688192,"light_rail",1907
662,"Futamatagawa",140.077780872572,35.8671983012447,"heavy_rail",1926
663,"Izumino",140.106966384659,35.8624055780974,"heavy_rail",1976
664,"Yokohama",140.133129823182,35.848994581209,"heavy_rail",1933
665,"Nishi-Yokohama",140.314104418862,35.7778883195293,"heavy_rail",1929
666,"Tennocho",139.635263584882,35.45063994876,"heavy_rail",1930
667,"Kami-Hoshikawa",140.148328621033,35.8388729740621,"heavy_rail",1926
668,"Fujisawa",140.193317456491,35.8306778969001,"light_rail",1974
669,"Kamakura",140.24216319287,35.8357960418869,"light_rail",1910
670,"Ishigami",140.277842778038,35.8076088506631,"light_rail",1920
671,"南千住 Minami-Senju",140.275258971511,35.7318037950254,"heavy_rail",1961
672,"Wadamachi",139.734357177581,35.5365705449168,"heavy_rail",1952
673,"Tsukishimadori-sanchome",139.616303067725,35.459646272991,"light_rail",1923
674,"Shin-Tsukudashima",139.748022688233,35.5347384488194,"light_rail",1923
675,"Nishiya",139.747294046027,35.5252396535206,"heavy_rail",1926
676,"Tsurugamine",139.738480126699,35.5174591705049,"heavy_rail",1930
677,"Kibogaoka",139.730982211948,35.5223996976377,"heavy_rail",1948
678,"Mitsukyo",139.492296672369,35.545597278685,"heavy_rail",1926
679,"Seya",140.338891858109,35.8322743975279,"heavy_rail",1926
680,"Yamato",139.487239465964,35.415216561052,"heavy_rail",1926
681,"Sagami-Otsuka",139.466686358219,35.396420814389,"heavy_rail",1926
682,"Sagamino",139.532443272151,35.4633206013854,"heavy_rail",1975
683,"Kashiwadai",139.526407063215,35.452362004453,"heavy_rail",1975
684,"Enoshima",139.521741647069,35.4394231744518,"light_rail",1902
685,"Shichirigahama",139.506356536427,35.4299003623793,"light_rail",1903
686,"Gokurakuji",139.482412112014,35.4057270377358,"light_rail",1904
687,"Wadazuka",139.594872198403,35.4588489856754,"light_rail",1907
688,"Yanagikoji",139.494911266841,35.5320816306157,"light_rail",1920
689,"Shonankaigankoen",139.486549623049,35.5582400412257,"light_rail",1904
690,"Kamakurakokomae",139.482578069633,35.3213334240443,"light_rail",1903
691,"Hase",140.348086146787,35.8773109194546,"light_rail",1907
692,"Sagami-Kokubun",139.726812545538,36.0249097146565,"heavy_rail",1926
693,"Atsugi",139.714561250562,36.0515287634958,"heavy_rail",1926
694,"Ebina",139.493359438018,35.3082858250636,"heavy_rail",1941
695,"Minami-Urawa",139.71500983413,36.0746467357774,"heavy_rail",1973
696,"Surugadaishita",139.693871746222,36.1368036859073,"light_rail",1904
697,"虎ノ門 Toranomon",139.522139859289,35.3041527821689,"light_rail",1905
698,"Tameike",139.687309413502,36.1923375101898,"light_rail",1905
699,"Misakicho",139.660081023622,36.2065086992692,"light_rail",1908
700,"Akasakamitsuke",139.541341619296,35.3128074138229,"light_rail",1905
701,"Ogawamachi",139.532311057911,35.4634614336771,"light_rail",1903
702,"Yotsuyamitsuke",139.494947885893,35.4294787453156,"light_rail",1905
703,"Sambancho",139.62033262391,35.464297498095,"light_rail",1905
704,"Hanzomon",139.608425063274,35.4532739769021,"light_rail",1905
705,"淡路町 Awajicho",139.602010457293,35.4542611574665,"light_rail",1903
706,"Babasakimon",139.579831316271,35.4678599151914,"light_rail",1920
707,"Kajibashi",139.550093512621,35.3185283852805,"light_rail",1920
708,"Sakurabashi",139.798777032729,35.732324441874,"light_rail",1920
709,"湯島 Yushima",139.48555330434,35.3323683650472,"heavy_rail",1969
710,"Ryogoku",139.648565012546,36.2219814134534,"light_rail",1903
711,"Echizenbori",139.586066448629,35.4639303365398,"light_rail",1920
712,"二重橋前 Nijubashimae",139.565424281939,35.4780788372234,"heavy_rail",1971
713,"Tokyo-eki-Marunouchi-kitaguchi",139.549212348698,35.4749176440142,"light_rail",1921
714,"Tocho-mae",139.513295532738,35.4606074040297,"light_rail",1926
715,"Asakusabashi",139.502595714641,35.4678292973225,"light_rail",1903
716,"Ichigaya",139.482155304038,35.4703467004944,"light_rail",1906
717,"Imoaraizaka",139.461595206163,35.4698965870414,"light_rail",1906
718,"Kudan-ue",139.440775213743,35.4707006236023,"light_rail",1906
719,"Iwamotocho",139.42840645218,35.4715654391226,"light_rail",1903
720,"九段下 Kudanshita",139.415151510063,35.4666173895947,"light_rail",1904
721,"Senshudaigakumae",139.487691349602,35.3110292172342,"light_rail",1904
722,"Nishikicho-kagan",139.50987633801,35.3062150734258,"light_rail",1904
723,"Kamakura-kagan",139.528926555032,35.3094952984824,"light_rail",1904
724,"Omagari",139.545521372384,35.3137385101757,"light_rail",1906
725,"神保町 Jimbocho",139.48521333628,35.3272323530794,"light_rail",1908
726,"Korakuenmae",139.483320249939,35.3152597412574,"light_rail",1908
727,"Sekiguchi-itchome",139.500562180994,35.3067325289917,"light_rail",1918
728,"Iidabashi-itchome",139.53603620131,35.3112217948326,"light_rail",1906
729,"Kanazawa-Hakkei",139.398509669897,35.4578301474135,"heavy_rail",1930
730,"Sannoshita",139.378789980983,35.4435452493956,"light_rail",1905
731,"Wakaba-itchome",139.391149935692,35.4527360837895,"light_rail",1905
732,"Kudan-ue",139.767329252919,35.6952972530077,"light_rail",1906
733,"Tocho-mae",139.751448440771,35.695473602779,"light_rail",1920
734,"京橋 Kyobashi",139.761675976678,35.6802906808432,"light_rail",1920
735,"Hatchobori",139.760859632628,35.6958203286638,"light_rail",1920
736,"Eitaibashi",139.743508491201,35.6708439344513,"light_rail",1920
737,"Marunouchi-itchome",139.756059346476,35.699903856586,"light_rail",1921
738,"Tokyo-eki-Marunouchi-minamiguchi",139.736876095185,35.6775077126951,"light_rail",1921
739,"Ichigayamitsuke",139.765411974454,35.6945791434153,"light_rail",1920
740,"Kudan-sanchome",139.729612627508,35.6862027367029,"light_rail",1906
741,"Kudan-ue",139.745598730904,35.6898203205238,"light_rail",1907
742,"神保町 Jimbocho",139.744141569431,35.6839617553875,"light_rail",1904
743,"Ogawamachi",139.761065618829,35.6785620847538,"light_rail",1904
744,"Sudacho",139.767532110963,35.677094074832,"light_rail",1903
745,"Ryogoku-nichome",139.775012358325,35.6746855313692,"light_rail",1905
746,"Higashi-Kanda",139.787671171666,35.6944619184969,"light_rail",1903
747,"Shintokiwabashi",139.781409293288,35.6749234156367,"light_rail",1904
748,"Kandabashi",139.766162439061,35.6827392673369,"light_rail",1904
749,"九段下 Kudanshita",139.76518059498,35.6776963166017,"light_rail",1906
750,"Bunkyo-kuyakushomae",139.785011895996,35.6948619984771,"light_rail",1908
751,"Edogawabashi",139.737136286999,35.6913573084399,"light_rail",1907
752,"Suidobashi",139.740810091367,35.692401220257,"light_rail",1908
753,"Hitotsubashi",139.746773071572,35.6944074489332,"light_rail",1920
754,"Morishitacho",139.775626251516,35.6954928726663,"light_rail",1912
755,"Waseda",139.755282828179,35.6958788881027,"light_rail",1918
756,"Tsurumakicho",139.761083816181,35.6915643670617,"light_rail",1918
757,"Ishikiribashi",139.767009040429,35.6895973670945,"light_rail",1907
758,"Mutsuura",139.74255166405,35.7081051225146,"heavy_rail",1943
759,"大手町 Otemachi",139.754487210391,35.7052975174967,"light_rail",1912
760,"Jimmuji",139.724233609565,35.7103240730842,"heavy_rail",1931
761,"Shinzushi",139.748356713502,35.7000748668415,"heavy_rail",1930
762,"Ofuna",139.620025418489,35.3313913398402,"people_mover",1970
763,"Nishi-Kamakura",139.729654172485,35.6833916166861,"people_mover",1970
764,"Kodenmacho",139.74652693533,35.6943337390719,"light_rail",1904
765,"Shonan-Enoshima",139.73887639523,35.6737947111443,"people_mover",1971
766,"Mejiroyamashita",139.758213285778,35.6956442692961,"people_mover",1971
767,"Kataseyama",139.764599877282,35.6777686007791,"people_mover",1971
768,"Shonan-Fukasawa",139.777499017975,35.6746342226661,"people_mover",1970
769,"Shonan-Machiya",139.786012205442,35.6765997176597,"people_mover",1970
770,"Marunouchi-itchome",139.767510924681,35.6843039947945,"light_rail",1920
771,"Fujimicho",139.765016733265,35.6805321259104,"people_mover",1970
772,"Kikukawa-nichome",139.735226444679,35.6921155077156,"light_rail",1913
773,"Ichigayamitsuke",139.744079652512,35.6934495421172,"light_rail",1905
774,"Kita-Aoyama-itchome",139.746837989447,35.6944299716439,"light_rail",1904
775,"Minami-Aoyama-nichome",139.765229957735,35.6945332607248,"light_rail",1904
776,"Aoyama-shakomae",139.76957920988,35.6957522894105,"light_rail",1906
777,"飯田橋 Iidabashi",139.791579265252,35.6942485286172,"light_rail",1905
778,"Shibuya-ekimae",139.77976469265,35.6953219357246,"light_rail",1923
779,"Akasaka-Omotecho",139.764564287079,35.690026512384,"light_rail",1904
780,"Toyokawainarimae",139.753537152067,35.7084581413709,"light_rail",1904
781,"赤坂見附 Akasaka-Mitsuke",139.731009194415,35.7101077903388,"light_rail",1904
782,"Hirakawacho-nichome",139.755075367311,35.7034002478743,"light_rail",1904
783,"Miakezaka",139.758787056419,35.6927818598533,"light_rail",1904
784,"Shinmitsuke",139.79848948009,35.6879770734156,"light_rail",1905
785,"Shinkawa-itchome",139.719040092137,35.7118289866857,"light_rail",1904
786,"茅場町 Kayabacho",139.727648860056,35.7096239305561,"light_rail",1904
787,"Gofukubashi",139.736049167364,35.7090788015198,"light_rail",1910
788,"Sumiyoshicho-nichome",139.769886307153,35.6876426878174,"light_rail",1922
789,"Hamacho-nakanohashi",139.611296070558,35.3225940512469,"light_rail",1912
790,"Sumiyoshicho-nichome",139.593047583676,35.3064161746266,"light_rail",1922
791,"Kikukawa-itchome",139.531298690298,35.3524505443775,"light_rail",1913
792,"Suitengumae",139.504128441651,35.3193456500635,"light_rail",1904
793,"飯田橋 Iidabashi",139.778867768689,35.6910894027833,"light_rail",1906
794,"Shin-Ohashi",139.487861910248,35.3118904973644,"light_rail",1912
795,"Kakigaracho",139.491591036258,35.314078044717,"light_rail",1904
796,"Hamacho-nichome",139.496227599144,35.3173175388416,"light_rail",1912
797,"Kachidokibashi",139.518812370827,35.3327927646327,"light_rail",1944
798,"Waseda-shakomae",139.522760466461,35.3379149547586,"light_rail",1918
799,"代々木 Yoyogi",139.768321868649,35.6843032815735,"heavy_rail",2000
800,"春日 Kasuga",139.529383886605,35.3454415507861,"heavy_rail",2000
801,"飯田橋 Iidabashi",139.806086206779,35.6883429510638,"heavy_rail",2000
802,"Naka-Shibuya-station-mae",139.735182915341,35.6921046995321,"light_rail",1911
803,"Eitaibashi",139.763235399435,35.6853262936009,"light_rail",1904
804,"日本橋 Nihombashi",139.758023381137,35.6959672193928,"light_rail",1910
805,"Marunouchi-itchome",139.723880229812,35.6727102996262,"light_rail",1912
806,"Asakusabashi",139.719847143662,35.6712481742905,"light_rail",1904
807,"Muromachi-sanchome",139.700880072934,35.6593044326781,"light_rail",1904
808,"Shintokiwabashi",139.732815537769,35.6758381968427,"light_rail",1914
809,"Yotsuyamitsuke",139.740782741951,35.6789450487235,"light_rail",1905
810,"Ushigomemitsuke",139.74601600377,35.6797205593216,"light_rail",1905
811,"Honshiocho",139.738594132251,35.6953745597899,"light_rail",1905
812,"Tsukiji",139.78281386722,35.6785058851192,"light_rail",1944
813,"Tsukishimadori-hatchome",139.770714634453,35.6837315727946,"light_rail",1946
814,"Higashi-Gokencho",139.815743684913,35.6894130287831,"light_rail",1907
815,"Hibiya-koen",139.788407937767,35.6857222425109,"light_rail",1903
816,"茅場町 Kayabacho",139.781948157517,35.6825321350157,"light_rail",1904
817,"Sakurabashi",139.810679678242,35.6886272380277,"light_rail",1904
818,"Tsukiji-nichome",139.784353076054,35.6837689900587,"light_rail",1904
819,"Ginza-yonchome",139.801684575261,35.6881188164724,"light_rail",1904
820,"桜田門 Sakuradamon",139.794528265663,35.6879297129309,"light_rail",1903
821,"Miakezaka",139.790672572113,35.6868065531298,"light_rail",1903
822,"霞ケ関 Kasumigaseki",139.772347387461,35.6648083275408,"tram",1912
823,"Nishikubotomoecho",139.7215793193,35.7110933801676,"tram",1912
824,"Shibuyabashi",139.707907299405,35.6614879475832,"light_rail",1927
825,"Shimotori-gochome",139.703160252168,35.6581097837577,"light_rail",1927
826,"Shinanomachi",139.785984540352,35.6766421189316,"light_rail",1906
827,"Yamabushicho",139.76753584695,35.6844151675598,"light_rail",1912
828,"Higashi-Okubo",139.785185713132,35.6954625483665,"light_rail",1913
829,"Sukiyabashi",139.773584581772,35.688889821026,"light_rail",1903
830,"Tsukiji",139.770079776882,35.6876693906606,"light_rail",1904
831,"Nishi-Hatchobori-nichome",139.729653833934,35.6861962526276,"light_rail",1904
832,"新富町 Shintomicho",139.742576823434,35.7002657362132,"light_rail",1904
833,"Miharabashi",139.730640498238,35.6894429222861,"light_rail",1904
834,"Hibiya-koen",139.769668794351,35.667340036708,"light_rail",1903
835,"Gijidomae",139.77806501784,35.6596674492765,"light_rail",1903
836,"Hanzomon",139.738546325609,35.7087146780495,"light_rail",1903
837,"桜田門 Sakuradamon",139.773814153739,35.6825523132171,"tram",1912
838,"虎ノ門 Toranomon",139.736584644692,35.678321154097,"tram",1912
839,"神谷町 Kamiyacho",139.744628858537,35.7030829934151,"tram",1912
840,"Ebisu-ekimae",139.778264467997,35.6807579545437,"light_rail",1927
841,"中目黒 Naka-Meguro",139.752700751431,35.70852,"light_rail",1927
842,"飯田橋 Iidabashi",139.75961064975,35.6749597510704,"light_rail",1912
843,"Uminokoen-Shibaguchi",139.774822011282,35.6753121097389,"people_mover",1989
844,"Namiki-Chuo",139.772009933207,35.6692367484588,"people_mover",1989
845,"Sangyoshinko Center",139.765113421348,35.6712116555315,"people_mover",1989
846,"Shin-Sugita",139.745850853806,35.6800150200904,"people_mover",1989
847,"Torihama",139.702800063271,35.6465605464683,"people_mover",1989
848,"Shidaiigakubu",139.719342099117,35.6808671726606,"people_mover",1989
849,"Nojimakoen",139.728700952295,35.6993154568988,"people_mover",1989
850,"Ginza-nichome",139.713068392804,35.6977223836809,"light_rail",1903
851,"Yotsuyamitsuke",139.75143567442,35.6747181108488,"light_rail",1903
852,"新宿三丁目 Shinjuku-sanchome",139.778202464177,35.6806831993694,"light_rail",1903
853,"Shinjuku-ekimae",139.753089602153,35.6778047933271,"light_rail",1903
854,"日本橋 Nihombashi",139.778074409278,35.6596701077557,"light_rail",1903
855,"Shinjuku-ekimae",139.763423623325,35.6724120620324,"light_rail",1949
856,"Tsunohazu",139.769928480024,35.6675428516394,"light_rail",1949
857,"Yotsuya-Sankocho",139.776432505441,35.6779207076046,"light_rail",1949
858,"Muromachi-itchome",139.709063730904,35.6474234533968,"light_rail",1903
859,"Shinjuku-nichome",139.767149989261,35.6695568802934,"light_rail",1903
860,"Shinjuku-itchome",139.759592953831,35.6749845055834,"light_rail",1903
861,"Yotsuya-yonchome",139.749021030883,35.6776279023549,"light_rail",1903
862,"Imagawabashi",139.744200185604,35.683927056169,"light_rail",1903
863,"四谷三丁目 Yotsuya-sanchome",139.63586827932,35.3421023053946,"light_rail",1903
864,"Yotsuya-nichome",139.642843343102,35.3654529446112,"light_rail",1903
865,"Kojimachi-rokuchome",139.646465296498,35.3534129638996,"light_rail",1903
866,"Sudacho",139.620340211153,35.3859856190296,"light_rail",1903
867,"Kojimachi-yonchome",139.641687899875,35.3770637051989,"light_rail",1903
868,"Kojimachi-nichome",139.782377732105,35.6627217078318,"light_rail",1903
869,"Hanzomon",139.650155558821,35.3439138250312,"light_rail",1903
870,"Sukiyabashi",139.631473028927,35.3305736141339,"light_rail",1904
871,"Babasakimon",139.786233007367,35.6655601720854,"light_rail",1903
872,"大手町 Otemachi",139.74929544803,35.6704905944054,"light_rail",1903
873,"Mitoshirocho",139.700843709063,35.6430500373274,"light_rail",1903
874,"Yurakubashi",139.745224561503,35.6632279026735,"light_rail",1904
875,"Ginza-nanachome",139.744478577978,35.7026078275263,"light_rail",1903
876,"Suidobashi",139.753290033975,35.6776293294086,"light_rail",1905
877,"Tokyo-eki-higashiguchi",139.773661018152,35.6718702583521,"light_rail",1904
878,"Shintokiwabashi",139.793182270345,35.6709302186271,"light_rail",1904
879,"Okubo-shakomae",139.768174852352,35.6741289453167,"light_rail",1914
880,"神楽坂 Kagurazaka",139.729187493062,35.6859800301433,"light_rail",1912
881,"Ushigome-kitamachi",139.701118266174,35.6923931945354,"light_rail",1912
882,"Ushigome-Yanagicho",139.701228818212,35.6936127790617,"light_rail",1913
883,"Tsunohazu",139.703518391329,35.6930488200832,"light_rail",1914
884,"Kawadacho",139.705342499891,35.6925774457955,"light_rail",1913
885,"飯田橋 Iidabashi",139.773983610435,35.6861431119116,"light_rail",1905
886,"御茶ノ水 Ochanomizu",139.709389820963,35.6888528680508,"light_rail",1905
887,"Akihabara-eki-higashiguchi",139.713697480591,35.6879709168541,"light_rail",1958
888,"Manseibashi",139.716258029975,35.6876380073092,"light_rail",1907
889,"Nambushijo",139.772113444295,35.6906190927607,"people_mover",1989
890,"Namikikita",139.724749561838,35.6875293338121,"people_mover",1989
891,"Sachiura",139.73332347609,35.6848272327268,"people_mover",1989
892,"Fukuura",139.770610656462,35.6962935409751,"people_mover",1989
893,"Hakkeijima",139.73815366689,35.683948788352,"people_mover",1989
894,"Hibiya-koen",139.741323266969,35.6842230697824,"light_rail",1903
895,"Wadakuramon",139.744029679948,35.6839377517883,"light_rail",1903
896,"Kandabashi",139.763308953674,35.6725944611296,"light_rail",1903
897,"Ogawamachi",139.760954543286,35.6785163562111,"light_rail",1903
898,"Tori-sanchome",139.765050036766,35.6929362521099,"light_rail",1903
899,"Ginza-yonchome",139.765678221015,35.6751201443497,"light_rail",1903
900,"京橋 Kyobashi",139.762172106869,35.6684767868932,"light_rail",1903
901,"Muromachi-sanchome",139.755180994065,35.7023764494675,"light_rail",1903
902,"Kanda-ekimae",139.769366363573,35.6808533314936,"light_rail",1903
903,"Shimbashi-eki-kitaguchi",139.77001257015,35.6875477292497,"light_rail",1904
904,"Kajibashi",139.709538321476,35.6958360405528,"light_rail",1904
905,"Kurehabashi",139.733119600004,35.6998282862001,"light_rail",1904
906,"Yotsuya-Sankocho",139.725657316133,35.6994346759328,"light_rail",1949
907,"Tsukudohachimancho",139.703464819479,35.6931370708021,"light_rail",1912
908,"Koishikawabashi",139.718097039217,35.6991758420288,"light_rail",1905
909,"Wakamatsucho",139.775026169208,35.6975132252643,"light_rail",1913
910,"Shinden-ura",139.771095873802,35.6976332187009,"light_rail",1914
911,"Juntendo-byoinmae",139.633217122228,35.3801542040808,"light_rail",1905
912,"Sotokanda-nichome",139.64267511936,35.371893553129,"light_rail",1905
913,"Akihabara-eki-nishiguchi",139.706941065815,35.6899481061055,"light_rail",1958
914,"Kanazawa-Hakkei",139.763450345201,35.7007769229426,"people_mover",1989
915,"Uminokoen-Minamiguchi",139.738478483096,35.7024508550306,"people_mover",1989
916,"Kishibojimmae",139.794731436671,35.6723929803841,"light_rail",1925
917,"Higashi-Ikebukuro-yonchome",139.763310227458,35.6859973516976,"light_rail",1925
918,"Sakaecho",139.643717117372,35.3583032522031,"light_rail",1913
919,"Waseda",139.648566786332,35.34963310927,"light_rail",1930
920,"Miyanomae",139.640861852192,35.3407489505841,"light_rail",1913
921,"Sugamoshinden",139.759636472233,35.6750089847312,"light_rail",1911
922,"Shin-Koshinzuka",139.762065678165,35.6819762773313,"light_rail",1911
923,"Takinogawa-itchome",139.764586614975,35.690625255164,"light_rail",1911
924,"Higashi-Ogu-sanchome",139.765243254313,35.694546797131,"light_rail",1913
925,"Oji-ekimae",139.772037374666,35.6797473577927,"light_rail",1915
926,"Arakawa-yuenchimae",139.764995790059,35.6711130696834,"light_rail",1913
927,"Arakawa-itchumae",139.772854471484,35.688880331135,"light_rail",2000
928,"Machiya-ekimae",139.770954210546,35.6934648976783,"light_rail",1913
929,"Arakawa-nichome",139.7585008161,35.6676477053626,"light_rail",1913
930,"Otsuka-ekimae",139.767315712164,35.6776932415139,"light_rail",1911
931,"Gakushuinshita",139.771226966046,35.6842729174284,"light_rail",1925
932,"Omokagebashi",139.70537417265,35.6926138198756,"light_rail",1930
933,"Toden-Zoshigaya",139.789302866464,35.6755938043686,"light_rail",1925
934,"Mukohara",139.791720567007,35.6738217175021,"light_rail",1925
935,"Koshinzuka",139.740990065221,35.7034792294323,"light_rail",1911
936,"Nishigahara-yonchome",139.750668095851,35.7030607230085,"light_rail",1911
937,"Asukayama",139.721030531101,35.7000916098551,"light_rail",1911
938,"Haneda",139.707167957505,35.6949243501534,"people_mover",1964
939,"Tenkubashi",139.759510449533,35.7019738764853,"people_mover",1993
940,"Hamamatsucho",139.768181923964,35.6991114338802,"people_mover",1964
941,"Haneda Airport Terminal 2",139.772196652003,35.6975552229951,"people_mover",2004
942,"Tennozu Isle",139.669178503299,35.6440922534254,"people_mover",1992
943,"Shin-Seibijo",139.622073949793,35.331359870546,"people_mover",1993
944,"Ryutsu Center",139.632000494844,35.3371972060756,"people_mover",1969
945,"Seibijo",139.7859922189,35.6766433398892,"people_mover",1967
946,"Oi Keibijo-mae",139.666083503501,35.6446429934168,"people_mover",1965
947,"Haneda Airport Terminal 1",139.659896653008,35.645958005275,"people_mover",1993
948,"Showajima",139.655216277454,35.643962647212,"people_mover",1985
949,"Hon-Atsugi",139.769747047302,35.676080681434,"heavy_rail",1927
950,"Yamakita",139.715018052199,35.7203546758363,"heavy_rail",1889
951,"Etchujima",139.780931674083,35.7427939514214,"light_rail",1923
952,"門前仲町 Monzen-Nakacho",139.72033667507,35.7253475076969,"light_rail",1923
953,"	新橋 Shimbashi",139.742277907474,35.7509209900324,"people_mover",1995
954,"Takeshiba",139.7189902666,35.711842876891,"people_mover",1995
955,"Hinode",139.765301008922,35.7500394865452,"people_mover",1995
956,"Shibaura-futo",139.727691260158,35.7356106866227,"people_mover",1995
957,"Odaiba-kaihinkoen",139.730506943246,35.7413847123442,"people_mover",1995
958,"Dokanyama Dori",139.735341121042,35.7472043028034,"heavy_rail",1934
959,"Nishi-Senju",139.774079548667,35.7455851352456,"heavy_rail",1935
960,"池袋 Ikebukuro",139.738032205275,35.7529785396106,"heavy_rail",1985
961,"Jujo",139.757804112406,35.7506826962013,"heavy_rail",1985
962,"Daiba",139.78883387592,35.7337594683385,"people_mover",1995
963,"Fune-no-kagakukan",139.784734453084,35.7385854198667,"people_mover",1995
964,"Telecom Center",139.650615680757,35.6434566842537,"people_mover",1995
965,"Aomi",139.646557818562,35.6433608863258,"people_mover",1995
966,"Higashi-Murayama",139.72919518107,35.731239150256,"heavy_rail",1895
967,"Kokusai-tenjijo-seimon",139.712513428337,35.716389397965,"people_mover",1995
968,"Minumadai-shinsuikoen",139.71422332597,35.7129961271399,"light_rail",2008
969,"Ariake",139.717728335287,35.7241006353991,"people_mover",1995
970,"Ariake-Tennis-no-mori",139.644979977004,35.647840621851,"people_mover",2006
971,"Shijo-mae",139.724908152512,35.728849406992,"people_mover",2006
972,"Shinagawa",139.729749059237,35.7394574921063,"heavy_rail",1885
973,"Shin-toyosu",139.732846053251,35.7444506321418,"people_mover",2006
974,"豊洲 Toyosu",139.737542382073,35.7503609058203,"people_mover",2006
975,"Yurakucho",139.760636797302,35.5484791038589,"heavy_rail",1919
976,"渋谷 Shibuya",139.754384216787,35.5489830990917,"heavy_rail",1885
977,"東雲 Shinonome",139.788169926367,35.5507440833573,"heavy_rail",1996
978,"Nippori",139.756692676255,35.6554395563697,"light_rail",2008
979,"池袋 Ikebukuro",139.750817913549,35.6226801784981,"heavy_rail",1903
980,"西日暮里 Nishi-Nippori",139.753354294608,35.5551303764473,"light_rail",2008
981,"Akado-shogakkomae",139.749172594503,35.5815638789414,"light_rail",2008
982,"Kumanomae",139.747061025612,35.5954388535673,"light_rail",2008
983,"Sugamo",139.750014792623,35.5708326602712,"heavy_rail",1903
984,"Adachi-Odai",139.784559009789,35.5490808455851,"light_rail",2008
985,"Ogi-ohashi",139.761916268265,35.6540014698488,"light_rail",2008
986,"Koya",139.332685786393,36.4113016833699,"light_rail",2008
987,"Kohoku",139.793028464905,35.7444063723967,"light_rail",2008
988,"Nishiaraidaishi-nishi",139.722305556495,35.7600039010373,"light_rail",2008
989,"高田馬場 Takadanobaba",139.768622201379,35.7331655619034,"heavy_rail",1910
990,"Yazaike",139.781255491852,35.6247282455653,"light_rail",2008
991,"東京駅 Tokyoeki (Tokyo Railway Station)",139.771405582346,35.6258884548523,"heavy_rail",1919
992,"Toneri-koen",139.721300842788,35.7057896549981,"light_rail",2008
993,"Toneri",139.465901282953,35.7599751477654,"light_rail",2008
994,"Komagome",139.770752422901,35.8145488457281,"heavy_rail",1910
995,"Iriso",139.793279715251,35.634570312112,"heavy_rail",1895
996,"Hamamatsucho",139.748064766395,35.7369346834849,"heavy_rail",1919
997,"Gotanda",139.771299050023,35.728868746132,"heavy_rail",1911
998,"Shin-Okubo",139.769037883426,35.7428961485143,"heavy_rail",1914
999,"Meguro",139.769872655823,35.7487075801383,"heavy_rail",1885
1000,"西日暮里 Nishi-Nippori",139.770377290814,35.7547087415782,"heavy_rail",1971
1001,"Osaki",139.770829090188,35.7639327851927,"heavy_rail",1909
1002,"Akihabara",139.77070422964,35.7683937963004,"heavy_rail",1925
1003,"Yoyogi",139.770329648613,35.7738114047361,"heavy_rail",1909
1004,"Tokorozawa",139.770092413737,35.7814646654441,"heavy_rail",1895
1005,"Sayamashi",139.770039159333,35.7887363195948,"heavy_rail",1895
1006,"Kumegawa",139.770139047064,35.7964015756649,"heavy_rail",1895
1007,"Kodaira",139.770112392263,35.8057148308749,"heavy_rail",1927
1008,"Hon-Kawagoe",139.427063308651,35.8324844659667,"heavy_rail",1895
1009,"Hana-Koganei",139.757052541697,35.6550981781375,"heavy_rail",1927
1010,"Tanashi",139.473241998687,35.7871450715483,"heavy_rail",1927
1011,"Seibu-Yagisawa",139.4133375907,35.8573369616778,"heavy_rail",1927
1012,"Higashi-Fushimi",139.472638626191,35.749584640163,"heavy_rail",1927
1013,"Musashi-Seki",139.488342088776,35.7371001172204,"heavy_rail",1927
1014,"Kami-Shakujii",139.481357094141,35.914069595074,"heavy_rail",1927
1015,"Kami-Igusa",139.513423165051,35.7261831298259,"heavy_rail",1927
1016,"Iogi",139.539659731181,35.7273281074494,"heavy_rail",1927
1017,"Shimo-Igusa",139.552720131032,35.7286234560668,"heavy_rail",1927
1018,"Saginomiya",139.564437474357,35.728681162568,"heavy_rail",1927
1019,"品川シーサイド Shinagawa Shisaido (Shinagawa Seaside)",139.577447450961,35.7275234400953,"heavy_rail",2002
1020,"国際展示場 Kokusai-Tenjijo",139.592950655696,35.7260977203794,"heavy_rail",1996
1021,"天王洲アイル Tennozu Aire (Tennozu Isle)",139.603171588055,35.7252489574825,"heavy_rail",2001
1022,"東京テレポート Tokyo Terepoto (Tokyo Teleport)",139.615381620052,35.7246640884755,"heavy_rail",1996
1023,"大井町 Oimachi",139.625472302177,35.7238359590596,"heavy_rail",2002
1024,"大崎 Osaki",139.639576509217,35.7226407581057,"heavy_rail",2002
1025,"Shinjuku",139.791386838684,35.6302251389851,"heavy_rail",1885
1026,"Otsuka",139.738460209103,35.6281294363039,"heavy_rail",1903
1027,"Tabata",139.739444814498,35.7334293407233,"heavy_rail",1903
1028,"Nippori",139.723749123354,35.62610149944,"heavy_rail",1919
1029,"中井 Nakai",139.763071251222,35.6749683559761,"heavy_rail",1927
1030,"Shimo-Ochiai",139.773051611278,35.698461704423,"heavy_rail",1927
1031,"Funabashi-Keibajo",139.703631727053,35.7126904006044,"heavy_rail",1927
1032,"高田馬場 Takadanobaba",139.768096399766,35.7337571689344,"heavy_rail",1927
1033,"Araiyakushimae",139.795460052546,35.6537677421155,"heavy_rail",1927
1034,"上野 Ueno",139.770934935626,35.6918067560129,"heavy_rail",1919
1035,"Mejiro",139.695504064318,35.7157460168993,"heavy_rail",1885
1036,"Ohanajaya",139.997976944641,35.6897652403872,"heavy_rail",1931
1037,"Harajuku",139.6726982012,35.7156915463634,"heavy_rail",1906
1038,"Toritsu-Kasei",139.840172910859,35.7475786200541,"heavy_rail",1937
1039,"Minami-Otsuka",139.645270412265,35.7222591750082,"heavy_rail",1897
1040,"Okachimachi",139.454605821103,35.8900462843571,"heavy_rail",1925
1041,"Shin-Sayama",139.433406979816,35.8739691760012,"heavy_rail",1964
1042,"Kanda",139.465624626979,35.7983271368457,"heavy_rail",1925
1043,"新橋 Shimbashi",139.65349663349,35.719554671668,"heavy_rail",1919
1044,"Tamachi",139.664736726053,35.7192739268486,"heavy_rail",1919
1045,"Uguisudani",139.728293996294,35.6192746861219,"heavy_rail",1919
1046,"Koku-koen",139.902377256925,35.7364637117309,"heavy_rail",1987
1047,"Seibu-Shinjuku",139.773916216443,35.7372057849428,"heavy_rail",1952
1048,"Nogata",139.796977408437,35.7423758557143,"heavy_rail",1927
1049,"Numabukuro",139.928106686836,35.7239027286089,"heavy_rail",1927
1050,"Konodai",140.048063776722,35.6859597266134,"heavy_rail",1914
1051,"Shin-Mikawashima",139.952840198941,35.7144299654995,"heavy_rail",1931
1052,"Senjuohashi",139.972155503317,35.7057219708596,"heavy_rail",1931
1053,"Keisei Yawata",140.155959475111,35.7215665914197,"heavy_rail",1915
1054,"Keisei Okubo",139.700033365784,35.6960906542759,"heavy_rail",1926
1055,"Higashi-Nakayama",139.778142146173,35.7214806526807,"heavy_rail",1953
1056,"Kaijin",139.774730018555,35.7075101253788,"heavy_rail",1919
1057,"Yurigaoka",139.770450937099,35.7279489165115,"heavy_rail",1982
1058,"Yachiyodai",139.761493240767,35.7375497982332,"heavy_rail",1956
1059,"Katsutadai",140.090708836501,35.7013075784625,"heavy_rail",1968
1060,"Keisei Shisui",140.126125741954,35.7154683529352,"heavy_rail",1926
1061,"Keisei Sakura",140.270032830223,35.7367969564796,"heavy_rail",1926
1062,"Kozunomori",140.229731406554,35.7252106537006,"heavy_rail",1994
1063,"Narita Airport Terminal 2·3",140.295251841567,35.7604900770463,"heavy_rail",1992
1064,"Keisei Hikifune",139.820367906865,35.7186988140272,"heavy_rail",1912
1065,"Yotsugi",139.834779614199,35.7317374056224,"heavy_rail",1912
1066,"Omurai",139.827813687497,35.710266060394,"heavy_rail",1928
1067,"Kameidosujin",139.833536082773,35.7000434547161,"heavy_rail",1928
1068,"Keisei Kanamachi",139.870330728447,35.7686738834595,"heavy_rail",1913
1069,"Kajiwara",139.747613341594,35.7510973964515,"light_rail",1913
1070,"Shin-Tokorozawa",139.455874489526,35.8068560552793,"heavy_rail",1951
1071,"Musashi-Nitta",139.692499477117,35.567863595769,"heavy_rail",1923
1072,"Kasumori",139.758585540003,35.6661900271099,"heavy_rail",1909
1073,"Shiodome",139.761436483886,35.66597134963,"heavy_rail",1914
1074,"Yaguchinowatashi",139.700242477425,35.5625653397772,"heavy_rail",2000
1075,"Hikifune",139.816818818586,35.7183004589025,"heavy_rail",1904
1076,"東京駅 Tokyoeki (Tokyo Railway Station)",140.068470527787,35.6869139545103,"heavy_rail",1914
1077,"Mimomi",139.70025298151,35.5625851695629,"heavy_rail",1926
1078,"Yaguchinowatashi",139.714945185805,35.5616546766058,"heavy_rail",1923
1079,"Kamata",139.713046792647,35.6253498932569,"heavy_rail",1923
1080,"Fudo-mae",139.70401098547,35.6202249578146,"heavy_rail",1923
1081,"Musashi-Koyama",140.107980914294,35.7120694041166,"heavy_rail",1923
1082,"Keisei Owada",139.698700748956,35.6154851894291,"heavy_rail",1926
1083,"Nishi-Koyama",139.694166767012,35.6101397561744,"heavy_rail",1923
1084,"Senzoku",139.668811636407,35.5896028725024,"heavy_rail",1923
1085,"Tamagawa",139.680587424682,35.5754473477854,"heavy_rail",2000
1086,"Unoki",139.68060382556,35.5754505116883,"heavy_rail",2000
1087,"Unoki",139.747804597169,35.6455651071769,"heavy_rail",1923
1088,"Tamachi",140.144977370519,35.7174397732013,"heavy_rail",1909
1089,"町屋 Machiya",139.714945723295,35.5616019396887,"heavy_rail",1931
1090,"Shizu",139.831766637706,35.7070603256155,"heavy_rail",1928
1091,"Kamata",139.81173534227,35.7439908580461,"heavy_rail",2000
1092,"Higashi-Azuma",139.685600099631,35.5713719594525,"heavy_rail",1928
1093,"Keisei Sekiya",140.180658987571,35.7299255556584,"heavy_rail",1931
1094,"Shimo-Maruko",139.685607563134,35.5713885244627,"heavy_rail",2000
1095,"Keisei Usui",139.827508882049,35.7476743069874,"heavy_rail",1926
1096,"Shimo-Maruko",139.692487229638,35.5678550050032,"heavy_rail",1923
1097,"Horikirishobuen",139.883628604354,35.7423319706884,"heavy_rail",1931
1098,"Musashi-Nitta",140.251108894802,35.7301124761385,"heavy_rail",2000
1099,"Keisei Koiwa",139.919555822475,35.7282293663449,"heavy_rail",1932
1100,"Osakura",139.817244293385,35.6589210999778,"heavy_rail",1926
1101,"Sugano",139.937298569891,35.7200902028773,"heavy_rail",1916
1102,"Shiomi",140.280932624653,35.752565134233,"heavy_rail",1990
1103,"Onigoe",139.959038148046,35.7116464700429,"heavy_rail",1935
1104,"Sogosando",139.99126481888,35.6942622623265,"heavy_rail",1928
1105,"Keisei Nishifuna",139.826990915307,35.6976754530194,"heavy_rail",1916
1106,"Daijingushita",140.007531488896,35.685287885423,"heavy_rail",1921
1107,"Kameido",140.317700581288,35.6630712925381,"heavy_rail",1904
1108,"Yatsu",139.828350510927,35.7271780218432,"heavy_rail",1921
1109,"Narita Airport Terminal 1",139.87516690935,35.7564168542039,"heavy_rail",1991
1110,"押上 Oshiage (Skytree)",139.848044121015,35.7381977026026,"heavy_rail",1912
1111,"Yahiro",140.041928147348,35.6484507174865,"heavy_rail",1923
1112,"Shibamata",139.88361299814,35.6362630635405,"heavy_rail",1913
1113,"Keisei Tateishi",140.102721449685,35.6070295576759,"heavy_rail",1912
1114,"Kaihimmakuhari",139.923640789905,35.6666289839052,"heavy_rail",1986
1115,"Maihama",139.995587974743,35.6819926226032,"heavy_rail",1988
1116,"Chiba-Minato",140.073546490105,35.6294893342964,"heavy_rail",1986
1117,"Soga",139.396567687878,35.9718504124795,"heavy_rail",1988
1118,"Hatchobori",139.781440822037,35.742277067321,"heavy_rail",1990
1119,"Ichikawashiohama",139.401557732342,36.0348230852558,"heavy_rail",1988
1120,"Minami-Funabashi",139.345428650105,36.0435050116564,"heavy_rail",1986
1121,"Inagekaigan",139.237514296482,36.0751304172795,"heavy_rail",1986
1122,"Kita-Sakado",139.701146741062,35.6594344059782,"heavy_rail",1973
1123,"Higashi-Matsuyama",139.777665220047,35.6746289236644,"heavy_rail",1923
1124,"Tsukinowa",140.12221984943,35.6168299568074,"heavy_rail",2002
1125,"Tobu-Takezawa",140.288220773407,35.6840100126872,"heavy_rail",1932
1126,"Shibuya",139.685458649789,35.6073636542709,"heavy_rail",2000
1127,"Ookayama",140.012936994283,35.6673509656853,"heavy_rail",1923
1128,"Shin-Narashino",139.672754902454,35.6040406113562,"heavy_rail",1986
1129,"Okusawa",139.667327252648,35.5968866802003,"heavy_rail",1923
1130,"Den-en-chofu",139.763289404795,35.6747753195896,"heavy_rail",1923
1131,"Yurakucho",139.668806265267,35.5896107319881,"heavy_rail",1910
1132,"Tamagawa",139.757292605387,35.6550718698753,"heavy_rail",1923
1133,"Hamamatsucho",139.715778747205,35.561798924336,"heavy_rail",1909
1134,"Kamata",139.633107905113,35.4780121375104,"heavy_rail",1904
1135,"Higashi-Kanagawa",139.397697631758,36.0026580872404,"heavy_rail",1908
1136,"新橋 Shimbashi",140.05907011437,35.6371925301265,"heavy_rail",1914
1137,"Takasaka",140.08899984224,35.6201843973768,"heavy_rail",1923
1138,"Kemigawahama",139.768134065156,35.6840089959744,"heavy_rail",1986
1139,"Chiba-Kamotsu Terminal",139.58654546012,35.7495025094402,"heavy_rail",1986
1140,"Gofukubashi",139.71079399555,35.7276039675208,"heavy_rail",1910
1141,"Oizumi-gakuen",139.673130213659,35.5827128019838,"heavy_rail",1924
1142,"Ikebukuro",139.662009776505,35.5805947679279,"heavy_rail",1915
1143,"Numabe",139.81313978582,35.711040012231,"heavy_rail",1923
1144,"Shin-Maruko",139.659890087596,35.5761927278849,"heavy_rail",2000
1145,"Musashi-Kosugi",139.654151498478,35.5644707860456,"heavy_rail",2000
1146,"Motosumiyoshi",139.64689239104,35.5534161349031,"heavy_rail",2008
1147,"Hiyoshi",139.67311602871,35.5826983971907,"heavy_rail",2008
1148,"Tokyo eki",139.792676170396,35.6679223329794,"heavy_rail",1990
1149,"Numabe",139.861580064804,35.6444066984673,"heavy_rail",2000
1150,"Etchujima",139.912486025602,35.6495432918375,"heavy_rail",1990
1151,"Higashi-Nagasaki",139.662391775508,35.7387594050825,"heavy_rail",1915
1152,"Kasairinkaikoen",139.959537729652,35.6913762430888,"heavy_rail",1988
1153,"Shin-Urayasu",139.545553185778,35.7515704351096,"heavy_rail",1988
1154,"Sakuradai",139.637813302001,35.7368043236599,"heavy_rail",1936
1155,"Futamatashimmachi",139.616299425584,35.740914036157,"heavy_rail",1988
1156,"Hibarigaoka",139.519957945933,35.7720559863613,"heavy_rail",1924
1157,"Nakamurabashi",139.375037207236,36.0451767261039,"heavy_rail",1924
1158,"Nerima-Takanodai",139.473526589924,35.7871263938177,"heavy_rail",1994
1159,"Kiyose",139.234155453718,36.1074614573335,"heavy_rail",1924
1160,"Shinrinkoen",139.327807229047,36.0443665847739,"heavy_rail",1971
1161,"Tokorozawa",139.200331597179,36.1170274888152,"heavy_rail",1915
1162,"Obusuma",139.610433516494,35.5998400879146,"heavy_rail",1925
1163,"Musashi-Ranzan",139.62695875615,35.6119349939978,"heavy_rail",1923
1164,"Tamayodo",139.661766238735,35.633518285016,"heavy_rail",1934
1165,"渋谷 Shibuya",139.645198170778,35.6316939699089,"heavy_rail",1977
1166,"Ikejiri-Ohashi",139.764120760772,35.6778908953814,"heavy_rail",1977
1167,"Sangen-jaya",139.634155498102,35.626657902075,"heavy_rail",1977
1168,"Komazawa-daigaku",139.682870940255,35.7303520126507,"heavy_rail",1977
1169,"Sakura-shimmachi",140.020765056541,36.9318303041131,"heavy_rail",1977
1170,"Futako-Tamagawa",139.714953251657,35.5618029340386,"light_rail",1927
1171,"Mizonokuchi",139.577383019181,35.6323281180382,"light_rail",1927
1172,"Kamata",139.722733797994,35.622716946128,"heavy_rail",1922
1173,"Komae",139.724233651757,35.6252529523842,"heavy_rail",1927
1174,"Osaki-Hirokoji",139.711963176832,35.6099217391563,"heavy_rail",1927
1175,"Gotanda",139.653836295556,35.656094295284,"heavy_rail",1928
1176,"Ebara-Nakanobu",139.697926137399,35.6022456573609,"heavy_rail",1927
1177,"Umegaoka",139.685261684236,35.5969818944832,"heavy_rail",1934
1178,"Nagahara",139.437483727084,35.5318155886229,"heavy_rail",1927
1179,"北綾瀬 Kita-Ayase",139.685637697744,35.5795832838324,"heavy_rail",1979
1180,"Ishikawadai",139.152099060392,35.2850150941937,"heavy_rail",1927
1181,"Sagami-Ono",139.155392691127,35.2564478868625,"heavy_rail",1938
1182,"Kugahara",139.135925095768,35.3262981565793,"heavy_rail",1923
1183,"Hotaruda",139.667121086727,35.6613668468902,"heavy_rail",1952
1184,"Odawara",139.646895479791,35.6535629541017,"heavy_rail",1927
1185,"Kaisei",139.623827164832,35.6473631980634,"heavy_rail",1985
1186,"Sangubashi",139.443869281005,35.9254141776018,"heavy_rail",1927
1187,"Shimo-Kitazawa",139.714925565367,35.7455739969614,"heavy_rail",1927
1188,"Gotokuji",139.39390939962,35.9570100658188,"heavy_rail",1927
1189,"Chitose-Funabashi",139.632937216589,35.7776113016213,"heavy_rail",1927
1190,"Keisei Tsudanuma",139.600342201941,35.7966801641844,"heavy_rail",1921
1191,"Keisei Makuhari-Hongo",139.58684669503,35.8147278714288,"heavy_rail",1991
1192,"Keisei Makuhari",139.575156468193,35.8223240520279,"heavy_rail",1921
1193,"Kemigawa",139.539361057587,35.8457737035938,"heavy_rail",1921
1194,"Keisei Inage",139.497248943951,35.8909438031989,"heavy_rail",1921
1195,"Midoridai",139.70247135214,35.7485828173265,"heavy_rail",1923
1196,"Nishi-Nobuto",139.676401801908,35.763583551439,"heavy_rail",1922
1197,"Shin-Chiba",139.483383377568,35.9069936636987,"heavy_rail",1923
1198,"Keisei Chiba",139.661800635608,35.7687142397327,"heavy_rail",1967
1199,"Chiba-Chuo",139.477185273315,35.9140344808136,"heavy_rail",1921
1200,"Chigasaki",139.455450599662,35.9228503696124,"heavy_rail",1921
1201,"Samukawa",139.681027313642,35.5920056260396,"heavy_rail",1921
1202,"Kurami",139.694108898076,35.7564339086301,"heavy_rail",1926
1203,"Atsugi",139.676202553231,35.5082540436116,"heavy_rail",1926
1204,"Kita-Chigasaki",139.716791191645,35.7409679174206,"heavy_rail",1940
1205,"Miyayama",139.550811806097,35.8382851321145,"heavy_rail",1931
1206,"Shake",139.523051338775,35.86084142088,"heavy_rail",1926
1207,"Hashimoto",139.714973517388,35.6160471852102,"heavy_rail",1931
1208,"Kagawa",139.708503504044,35.5642499320627,"heavy_rail",1921
1209,"Kadosawabashi",139.702886095998,35.5720659827037,"heavy_rail",1931
1210,"Eitaibashi",139.718838020444,35.6185474595884,"light_rail",1904
1211,"Eitai-nichome",139.691274672246,35.5997943498779,"light_rail",1904
1212,"Sagacho-itchome",139.70276729262,35.6048260206061,"light_rail",1904
1213,"Sangenjaya",139.691575024482,35.5728972596021,"heavy_rail",1923
1214,"Nishi-Taishido",139.682511264004,35.5852122400937,"heavy_rail",1923
1215,"Wakabayashi",139.622958968951,35.466228282935,"heavy_rail",1923
1216,"Shoin-Jinjamae",139.399927842872,35.4807018599133,"heavy_rail",1923
1217,"Setagaya",139.422630081498,35.5151005069501,"heavy_rail",1923
1218,"Kamimachi",139.390975944602,35.4528098528724,"heavy_rail",1923
1219,"Miyanosaka",139.644418199153,35.7706456160273,"heavy_rail",1923
1220,"Yamashita",139.688825636655,35.6696484698653,"heavy_rail",1923
1221,"Matsubara",139.70889292441,35.7468640121078,"heavy_rail",1923
1222,"Shimo-Takaido",139.423657616742,35.9369201694274,"heavy_rail",1923
1223,"Minami-Suna-sanchome",139.673279719141,35.6656260024335,"light_rail",1924
1224,"Toyo-koenmae",139.688516556055,35.7589078935351,"light_rail",1927
1225,"Komatsugawa-yonchome",139.511771103613,35.8739005816106,"light_rail",1917
1226,"門前仲町 Monzen-Nakacho",139.562028974237,35.8308446379165,"light_rail",1911
1227,"Fudosonmae",139.661211589248,35.6582309720822,"light_rail",1914
1228,"Tomiokacho",139.408641432228,35.9490632551835,"light_rail",1914
1229,"Kiba-nichome",139.636698553934,35.6512129254482,"light_rail",1914
1230,"Kiba-gochome",139.516118806438,35.6090523698314,"light_rail",1914
1231,"Nishi-Arakawa",139.609785949657,35.6432456551122,"light_rail",1926
1232,"Suijinmori",139.698864643943,35.6836859901009,"light_rail",1917
1233,"Iwamotocho",139.586703518491,35.6364797324342,"light_rail",1910
1234,"Akihabara-eki-higashiguchi",139.527913417493,35.6147683205445,"light_rail",1910
1235,"Ueno-ekimae",139.694885247653,35.7264259294127,"light_rail",1910
1236,"Doshubashi",139.672725720208,35.7375833197658,"light_rail",1923
1237,"Sotokanda-sanchome",139.69691490654,35.5313364012213,"light_rail",1922
1238,"Sotokanda-nichome",139.484955400687,35.5271271767054,"light_rail",1922
1239,"淡路町 Awajicho",139.739306393654,35.628584621158,"light_rail",1929
1240,"Toyo-koenmae",139.761449190994,35.6659762564922,"light_rail",1930
1241,"Toyo-gochome",139.598310906053,35.639936894764,"light_rail",1930
1242,"Toyosumibashi",139.573689668181,35.6275279303678,"light_rail",1930
1243,"Sengokucho",139.564535376518,35.6172495339892,"light_rail",1930
1244,"Sendacho",139.541365666579,35.6149018490682,"light_rail",1930
1245,"Ogibashi-nichome",139.671266211522,35.6435388586349,"light_rail",1930
1246,"Saruecho",139.671248254856,35.6435570994314,"light_rail",1930
1247,"Sumiyoshicho-nichome",139.701141647317,35.6594446291436,"light_rail",1930
1248,"Moricho",139.629727167567,35.7359203376693,"light_rail",1930
1249,"Kinshibori",139.606492590827,35.7436727252325,"light_rail",1930
1250,"Kinshibori",139.661773722319,35.6335069892392,"light_rail",1917
1251,"Kameido-ekimae",139.567783176857,35.7482809495078,"light_rail",1917
1252,"Kameido-rokuchome",139.53405412218,35.7602645375628,"light_rail",1917
1253,"Kameido-nanachome",139.496716871417,35.7784849487236,"light_rail",1917
1254,"Kameido-kyuchome",139.209024576832,36.1138727554038,"light_rail",1917
1255,"Sengenmae",139.617110532834,35.6032606448462,"light_rail",1917
1256,"Komatsugawa-sanchome",139.626959589683,35.6119316011561,"light_rail",1917
1257,"Kita-Suna-sanchome",139.68456246699,35.6506434955124,"light_rail",1924
1258,"Kita-Suna-nichome",139.444175218865,35.5074516804716,"light_rail",1924
1259,"Sakaigawa",139.605550632307,35.5937255804781,"light_rail",1924
1260,"Daiyon-Sunamachi-shogakko",139.481758119659,35.5169980564054,"light_rail",1927
1261,"Minami-Suna-nichome",139.572812952561,35.5794959594025,"light_rail",1927
1262,"Suitengumae",139.626968306884,35.6119313285815,"light_rail",1904
1263,"人形町 Ningyocho",139.626966127584,35.6119333728827,"light_rail",1904
1264,"Horidomecho",139.470044100162,35.511460374096,"light_rail",1910
1265,"小伝馬町 Kodenmacho",139.551385187699,35.5585278238762,"light_rail",1910
1266,"Iwamotocho-nichome",139.541066575032,35.5510944176635,"light_rail",1910
1267,"Izumicho",139.517081712825,35.542910788305,"light_rail",1910
1268,"Taito-itchome",139.45819964017,35.5103765549365,"light_rail",1910
1269,"Taito-sanchome",139.661172109109,35.6054143225349,"light_rail",1910
1270,"Okachimachi-ekimae",139.647429438403,35.6085259851239,"light_rail",1910
1271,"Sudacho",139.65339519391,35.6071283804972,"light_rail",1903
1272,"Manseibashi",139.669247623593,35.6075464680747,"light_rail",1903
1273,"Sotokanda-sanchome",139.669247547206,35.607554644537,"light_rail",1903
1274,"Sotokanda-gochome",139.678966660154,35.6065672668972,"light_rail",1903
1275,"Ueno-itchome",139.678968205673,35.6065760627394,"light_rail",1903
1276,"上野広小路 Ueno-hirokoji",139.639067855123,35.6119070380042,"light_rail",1903
1277,"Ueno-koen",139.63415970912,35.6266535012703,"light_rail",1903
1278,"Ueno-eki-minamiguchi",139.588501629586,35.9732763578867,"light_rail",1903
1279,"Ueno-ekimae",139.509428953858,36.0592069015499,"light_rail",1903
1280,"Sakaigawa",139.569367121638,35.6210882856445,"light_rail",1944
1281,"Minami-Suna-gochome",139.777150423781,35.713479726748,"light_rail",1944
1282,"Kita-Suna-yonchome",139.624627019786,35.9067155330041,"light_rail",1944
1283,"Kita-Suna-nanachome",139.507585725437,35.6038470952343,"light_rail",1944
1284,"Higashi-Suna-yonchome",139.481995113454,35.5831955437149,"light_rail",1944
1285,"Kasaibashi",139.444510554111,35.5433413566297,"light_rail",1944
1286,"Mukaioka-nichome",139.378537138958,35.4432486657218,"light_rail",1915
1287,"Hakusanue",139.691468317658,35.7911499380988,"light_rail",1915
1288,"Mukaioka-itchome",139.343918443702,35.4175937422748,"light_rail",1915
1289,"新大塚 Shin-Otsuka",139.277459224349,35.3808295234883,"light_rail",1911
1290,"浅草 Asakusa",139.225662631457,35.3702911116814,"light_rail",1908
1291,"Shotencho",139.139496852147,35.3446530213519,"light_rail",1908
1292,"Namidabashi",139.145347770849,35.2962769019499,"light_rail",1909
1293,"Minami-Senju",139.637490773104,35.8534495903343,"light_rail",1910
1294,"Komagata-nichome",139.524303917927,35.7016029250343,"light_rail",1921
1295,"Sumida-koenmae",139.466014755107,35.699704486522,"light_rail",1908
1296,"Yoshinocho-nichome",139.625940183435,35.881392666841,"light_rail",1909
1297,"Yoshinocho-sanchome",139.766490947544,35.6812606808349,"light_rail",1909
1298,"Yamayacho",139.752749000127,35.7508876113875,"light_rail",1909
1299,"Ueno-ekimae",139.71751549853,35.8019241406484,"light_rail",1908
1300,"Shinjuku-ekimae",139.625594964462,35.4695709203754,"light_rail",1921
1301,"Kashiwaki-itchome",139.633333999406,35.4779216897171,"light_rail",1921
1302,"Naruko-Sakashita",139.676421622046,35.5082013930926,"light_rail",1921
1303,"Honchodori-itchome",139.599715561218,35.4466226538292,"light_rail",1921
1304,"Honchodori-sanchome",139.715832070559,35.5617815914074,"light_rail",1921
1305,"Nabeya-yokocho",139.486427635392,35.3388464351087,"light_rail",1921
1306,"Honchodori-rokuchome",139.646110328305,35.8721503016471,"light_rail",1921
1307,"Koenji-itchome",139.407482111308,35.3306098053665,"light_rail",1921
1308,"Koenji-nichome",139.73826494095,35.7523676970618,"light_rail",1921
1309,"Sanshishikenjomae",139.669534416307,35.8177221213552,"light_rail",1921
1310,"Suginami-shakomae",139.639138978047,35.8843992725709,"light_rail",1921
1311,"Mabashi-itchome",139.65719349444,35.8589749611143,"light_rail",1921
1312,"Mabashi-nichome",139.738179677343,35.7522211067702,"light_rail",1921
1313,"Asagaya",139.772965329264,35.6984661823622,"light_rail",1921
1314,"Suginami-kuyakushomae",139.770363489271,35.7279449503993,"light_rail",1921
1315,"Seiso",139.761437766236,35.7375028260868,"light_rail",1921
1316,"Amanuma",139.666894125249,36.0173935315557,"light_rail",1956
1317,"Amanuma",139.632067330218,35.9317022293857,"light_rail",1921
1318,"Ogikubo",139.72039654112,35.7779649359458,"light_rail",1921
1319,"Ogikubo-ekimae",139.720515847763,35.7780248345753,"light_rail",1956
1320,"Mukaioka-nichome",139.757981087241,35.6665025019916,"light_rail",1917
1321,"Kichojojimae",139.747661881297,35.6457842345792,"light_rail",1917
1322,"Komagome-Fujizen",139.734885272602,35.6064505851654,"light_rail",1917
1323,"Asukayama",139.727933925149,35.5884818548587,"light_rail",1923
1324,"Ichiritsuka",139.649728106355,35.7053025650219,"light_rail",1923
1325,"Nishigaharacho",139.214261504127,35.2812674225494,"light_rail",1923
1326,"Nishigahara-nichome",139.313251321823,35.3113352444695,"light_rail",1923
1327,"Nishigahara-itchome",139.138521899521,35.3462058827522,"light_rail",1923
1328,"Shimofuribashi",139.970743069585,35.8619685300241,"light_rail",1923
1329,"Komagome-ekimae",139.770845555836,35.7282269108068,"light_rail",1923
1330,"Senju-ohashi",139.711186268285,35.7299683050664,"light_rail",1928
1331,"Senju-Nakagumi",139.798949255805,35.7331851366412,"light_rail",1928
1332,"Adachi-kuyakushomae",139.870756125124,35.7694569768956,"light_rail",1928
1333,"Kita-Senju-ekimae",139.921139455349,35.8254944853105,"light_rail",1928
1334,"Kita-Senju-yonchome",139.988123846243,35.8757163163824,"light_rail",1928
1335,"Keikyu-Kurihama",139.726606419311,36.0246776385887,"heavy_rail",1942
1336,"YRP Nobi",139.726731450609,36.0247652393357,"heavy_rail",1963
1337,"Miurakaigan",139.595575823316,36.1229938409012,"heavy_rail",1966
1338,"Misakiguchi",139.529019492014,36.1876998715448,"heavy_rail",1975
1339,"Asakusabashi",139.76237085616,35.7377978273174,"light_rail",1904
1340,"Asakusabashi-ekimae",139.908205543703,35.7287655556774,"light_rail",1904
1341,"Kuramae-itchome",140.057941741463,35.6593839877348,"light_rail",1904
1342,"Kuramae-nichome",140.165765951402,35.6629967258566,"light_rail",1904
1343,"Umayabashi",139.497578491803,35.5895632570406,"light_rail",1904
1344,"Komagata-nichome",139.46387910977,35.5643600838594,"light_rail",1904
1345,"Kaminarimon",139.408230103239,35.4990877372743,"light_rail",1904
1346,"Sudacho",139.364356028497,35.4393125396285,"light_rail",1904
1347,"Kawagoe-Kubocho",139.080276967493,35.360724994959,"light_rail",1906
1348,"Naritasanmae",139.313433904094,35.3959822220871,"light_rail",1906
1349,"Numabata",139.63100147333,35.8678472174323,"light_rail",1906
1350,"Ninoseki",139.271087145775,35.3731439173073,"light_rail",1906
1351,"Kurosu",139.184846207492,35.3741524622636,"light_rail",1906
1352,"Shibachi",139.560919603563,35.7027100618444,"light_rail",1906
1353,"Takagi",139.142494399903,35.3108846960097,"light_rail",1906
1354,"Nishi-Asuma",139.628259426767,35.8903593806936,"light_rail",1906
1355,"Gomikaido",139.154492471923,35.2719192628958,"light_rail",1906
1356,"Uchino",139.506822989166,35.7011203505783,"light_rail",1906
1357,"Namiki",139.446305379328,35.699221900576,"light_rail",1906
1358,"Shukeijomae",139.534137778518,35.4007695023391,"light_rail",1929
1359,"Onari",139.69710413423,35.5312137507599,"light_rail",1906
1360,"Kojomae",139.722337099569,35.7600046374329,"light_rail",1906
1361,"Ueno-ekimae",139.722279721146,35.7600046245173,"light_rail",1904
1362,"Shitayajinjamae",139.646169675423,35.8458289527876,"light_rail",1904
1363,"稲荷町 Inaricho",139.746957864865,35.746581326145,"light_rail",1904
1364,"Matsugaya-itchome",139.739505926374,35.6285471836512,"light_rail",1904
1365,"Kikuyabashi",139.530761712547,35.3536415204675,"light_rail",1904
1366,"Asakusa-itchome",139.660050643445,35.8276011449769,"light_rail",1904
1367,"Kaminarimon",139.704469412903,35.8155820985085,"light_rail",1904
1368,"浅草 Asakusa",139.726872208708,35.7638644265055,"light_rail",1908
1369,"Azumabashi-itchome",139.774660379174,35.7075187856995,"light_rail",1920
1370,"Mukojima-Susakimachi",139.778030069084,35.7214759224923,"light_rail",1931
1371,"Higashi-Mukojima-sanchome",139.65297825011,35.9812943426398,"light_rail",1950
1372,"Otsuka-ekimae",139.640225459639,35.948684430965,"light_rail",1913
1373,"Gokokujimae",139.762997510907,35.6750234098557,"light_rail",1928
1374,"Otowa-nichome",139.756972096752,35.6551101685468,"light_rail",1928
1375,"Otowa-itchome",139.728135482095,35.5889478661149,"light_rail",1928
1376,"Edogawabashi",139.6354660455,35.7048602257383,"light_rail",1928
1377,"Sakamoto-nichome",139.805061719925,35.749850248209,"light_rail",1908
1378,"Minowabashi",139.770870434096,35.6918271754133,"light_rail",1911
1379,"Senju-ohashi",139.446283694086,35.3368342907501,"light_rail",1912
1380,"Minami-Senju-rokuchome",139.349393643351,35.3276918823391,"light_rail",1912
1381,"Minowa-shakomae",139.777808039922,35.7333118663597,"light_rail",1911
1382,"Kanasugi-nichome",139.257291534693,35.2987376879179,"light_rail",1911
1383,"Kanasugi-nakadori",139.155896126262,35.2562246936658,"light_rail",1911
1384,"Kanasugi-itchome",139.911663567745,35.8005506675435,"light_rail",1911
1385,"Shimokurazakacho",140.010748977516,35.8727078340476,"light_rail",1908
1386,"Komagomebashi",140.040858302449,35.8724947661442,"light_rail",1922
1387,"Komagome-ekimae",139.931149278877,35.8334135833172,"light_rail",1923
1388,"Kamifujizen",139.809054745414,35.7104051038105,"light_rail",1922
1389,"Tsukuihama",139.766693390301,35.7319992704561,"heavy_rail",1966
1390,"Keikyu-Nagasawa",139.809065911429,35.7103706030288,"heavy_rail",1966
1391,"Kita-Kurihama",139.816563643369,35.7182993686439,"heavy_rail",1942
1392,"Shin-Otsu",139.819279501819,35.7242783459958,"heavy_rail",1942
1393,"Horinouchi",139.820073034596,35.7333761785534,"heavy_rail",1942
1394,"Gondawara",139.817626480048,35.7431653069024,"light_rail",1906
1395,"Samoncho",139.8121442051,35.7446366159123,"light_rail",1907
1396,"Midori-itchome",139.526440656663,36.2082184222028,"light_rail",1905
1397,"Sumida-kuyakushomae",139.31517550425,36.4075708538699,"light_rail",1905
1398,"Ishihara-itchome",139.761975624327,35.7505290094538,"light_rail",1905
1399,"Honjo-itchome",139.817692835167,35.7431806945372,"light_rail",1905
1400,"Komagatabashi",139.900527074411,35.784195640787,"light_rail",1907
1401,"Azumabashi-itchome",139.774414913319,35.9357733762032,"light_rail",1910
1402,"Honjo-Azumabashi",140.06363514771,35.8966019822432,"light_rail",1910
1403,"Nariharabashi",139.812134725824,35.7446712374346,"light_rail",1910
1404,"Oshiage-ekimae",139.847513822286,35.7665377020543,"light_rail",1913
1405,"Jikkenbashi",139.917338058119,35.8116093146652,"light_rail",1919
1406,"Yanagishima",139.954099880038,35.8446396518486,"light_rail",1920
1407,"Fukugamibashi",139.812872635575,35.758870702339,"light_rail",1958
1408,"Kinshicho-ekimae",139.677604646439,36.0655663983122,"light_rail",1949
1409,"Taihei-itchome",139.809494610806,35.7660387148407,"light_rail",1928
1410,"Ishihara-sanchome",139.770616506247,35.9487547129074,"light_rail",1928
1411,"Ishihara-nichome",139.798098575758,35.7723788839855,"light_rail",1928
