"nodeID","nodeLabel","longitud","latitud","mode","year"
1,"Acatitla",-99.0056696043297,19.3646941444059,"heavy_rail",1991
2,"Norte 45",-99.1630290580263,19.4887139663009,"heavy_rail",1983
3,"Vallejo",-99.1560129335186,19.4898251969799,"heavy_rail",1983
4,"El Chopo",-99.1544870949581,19.4433858904037,"brt",2005
5,"5 de Mayo",-99.0901733931163,19.4971884001931,"brt",2013
6,"Hamburgo",-99.1627302505172,19.4293244814502,"brt",2017
7,"El Caminero

",-99.169029391805,19.2794263291215,"brt",2008
8,"Fuentes Brotantes

",-99.1745381623582,19.2882169554592,"brt",2008
9,"Santa Úrsula

",-99.1753248494396,19.2832896627045,"brt",2008
10,"La Joya

",-99.1700184853613,19.2803118935548,"brt",2008
11,"Ayuntamiento

",-99.1776317014734,19.2925888663621,"brt",2008
12,"Corregidora

",-99.1810196413245,19.2940385911916,"brt",2008
13,"Villa Olímpica

",-99.1855283426333,19.2991137172143,"brt",2008
14,"Perisur

",-99.1861902696763,19.3044771452876,"brt",2008
15,"Centro Cultural Universitario

",-99.1874804357963,19.3146650220834,"brt",2008
16,"Dr. Gálvez

",-99.1900876141569,19.3406375559841,"brt",2005
17,"Ciudad Universitaria

",-99.188502576399,19.3229716550336,"brt",2008
18,"La Viga",-99.124558370187,19.3980832720142,"brt",2008
19,"CCH Oriente",-99.0607808938439,19.3833394533743,"brt",2008
20,"Constitución de Apatzingán",-99.0598324408773,19.3890545708631,"brt",2008
21,"General Antonio de León",-99.0517000542463,19.3853954086203,"brt",2008
22,"Andrés Molina",-99.1296902033797,19.3976988062855,"brt",2008
23,"Del Moral",-99.0708963066242,19.3842589255347,"brt",2008
24,"Leyes de Reforma",-99.0658177248664,19.3834765301221,"brt",2008
25,"Las Américas",-99.1343169882017,19.3934900432563,"brt",2008
26,"Río Frío",-99.0742740045877,19.3876473312085,"brt",2008
27,"Rojo Gomez",-99.0763636313519,19.3845496850158,"brt",2008
28,"Canal de San Juan",-99.0565109313296,19.3967746803955,"brt",2008
29,"Río Mayo",-99.0800072472055,19.386991749783,"brt",2008
30,"Xola",-99.1402429224918,19.3944094144311,"brt",2008
31,"Río Tecolutla",-99.0831129671323,19.3890664526397,"brt",2008
32,"Nicolás Bravo",-99.050903268582,19.3935293010513,"brt",2008
33,"Tepalcates",-99.0474373063985,19.3908072188444,"brt",2008
34,"Escandón",-99.1738421491206,19.4044066309436,"brt",2008
35,"Álamos",-99.1429187527855,19.3947937032611,"brt",2008
36,"El Rodeo",-99.0870555049635,19.3916049420062,"brt",2008
37,"UPIICSA",-99.0904011601174,19.3938657434531,"brt",2008
38,"Iztacalco",-99.096043029349,19.3965220578522,"brt",2008
39,"Centro SCOP",-99.1467332085277,19.3952801526777,"brt",2008
40,"Goma",-99.0999676263405,19.3969109326479,"brt",2008
41,"Tlacotal",-99.1038424638525,19.3972610577185,"brt",2008
42,"Tlacotal",-99.1093299820447,19.3979027377028,"brt",2008
43,"Doctor Vértiz",-99.1517844657167,19.3955901965486,"brt",2008
44,"Coyuya",-99.1168395292279,19.3982892882432,"brt",2008
45,"Patriotismo",-99.177410816547,19.4055692170375,"brt",2008
46,"Etiopía",-99.1550638984562,19.3958138362133,"brt",2008
47,"Amores",-99.1637765629708,19.3968537939543,"brt",2008
48,"De La Salle",-99.1834757356462,19.4075733698436,"brt",2008
49,"Viaducto",-99.1680787106088,19.4012921489066,"brt",2008
50,"Nuevo León",-99.1704295660111,19.4034994333804,"brt",2008
51,"Antonio Maceo",-99.1858885331834,19.40487098127,"brt",2008
52,"Tacubaya",-99.1870100670198,19.4019461362426,"brt",2008
53,"Parque Lira",-99.1890326136815,19.4077481658826,"brt",2008
54,"Zinacantepec",-99.7012655385474,19.282615082174,"inter_city_rail",2018
55,"Central de Autobuses",-99.646267123362,19.2692585756823,"inter_city_rail",2018
56,"Metepec",-99.5740867825156,19.2777948129242,"inter_city_rail",2018
57,"Lerma",-99.515007181149,19.2786203800915,"inter_city_rail",2018
58,"Santa Fe",-99.2683636912493,19.3641307520974,"inter_city_rail",2018
59,"Observatorio",-99.1419621486568,19.4271142141155,"heavy_rail",1972
60,"Observatorio",-99.1208713063976,19.4295695079696,"inter_city_rail",2018
61,"Tacubaya",-99.200430008444,19.3982408390778,"heavy_rail",1970
62,"Chapultepec",-99.2007343572642,19.3981772104709,"heavy_rail",1969
63,"nsurgentes",-99.1881860307949,19.4023252289636,"heavy_rail",1969
64,"Balderas",-99.1768315098876,19.4205887190002,"heavy_rail",1969
65,"Salto del Agua",-99.1630414448482,19.4237010684957,"heavy_rail",1969
66,"Isabel la Católica",-99.1490605552539,19.4271737695481,"heavy_rail",1969
67,"Pino Suárez",-99.1433956247824,19.4269135191852,"heavy_rail",1970
68,"Merced",-99.1378597990949,19.4263339107169,"heavy_rail",1969
69,"San Lázaro",-99.1331033551346,19.4255878708834,"heavy_rail",1969
70,"Observatorio",-99.1255288512025,19.4255736341938,"heavy_rail",2018
71,"Juanacatlán",-99.1143940367431,19.4308259628822,"heavy_rail",1970
72,"Sevilla",-99.1999439238068,19.3980938767748,"heavy_rail",1969
73,"Cuahutemoc",-99.1820340171578,19.412765863702,"heavy_rail",1969
74,"Pino Suárez",-99.1705782439541,19.4219921600886,"heavy_rail",1969
75,"Salto del Agua",-99.1545669530367,19.4257062047574,"heavy_rail",1994
76,"Candelaria",-99.1332330267068,19.4259280636277,"heavy_rail",1969
77,"Moctezuma",-99.1096864936053,19.4268123463708,"heavy_rail",1969
78,"Balbuena",-99.1024708611322,19.4232692312229,"heavy_rail",1969
79,"Gómez Farías",-99.0902662226368,19.4163885653886,"heavy_rail",1969
80,"Pantitlán",-99.0746871002861,19.4162238464329,"heavy_rail",1984
81,"Insurgentes",-99.1625345327216,19.4232524858004,"brt",2005
82,"Balderas",-99.1489811659255,19.4269968150203,"heavy_rail",1970
83,"Boulevard Puerto Aéreo",-99.0963179700631,19.4198779324501,"heavy_rail",1969
84,"Zaragoza",-99.0821161454583,19.4116940609451,"heavy_rail",1969
85,"Chabacano",-99.1355524358709,19.4092368454982,"heavy_rail",1970
86,"Chabacano",-99.1338007469343,19.4101350721497,"heavy_rail",1994
87,"Cuatro Caminos",-99.2158232476542,19.4595657966862,"heavy_rail",1984
88,"Tacuba",-99.1887529141409,19.4595354216408,"heavy_rail",1984
89,"Panteones",-99.2035835772869,19.4588350271207,"heavy_rail",1984
90,"Viaducto",-99.136933318241,19.4010514915154,"heavy_rail",1970
91,"Tacuba",-99.1871776392854,19.4591617657034,"heavy_rail",1970
92,"Chabacano",-99.1339672826445,19.4084582663385,"heavy_rail",1987
93,"Xola",-99.137819237487,19.3951752758281,"heavy_rail",1970
94,"Cuitláhuac",-99.1815269050584,19.4572456674812,"heavy_rail",1970
95,"Popotla",-99.1755256908421,19.4528831314224,"heavy_rail",1970
96,"Colegio Militar",-99.1716456594924,19.4490354987353,"heavy_rail",1970
97,"Villa de Cortés",-99.1389675916051,19.3875484142322,"heavy_rail",1970
98,"Normal",-99.1673646626094,19.444574981844,"heavy_rail",1970
99,"San Cosme",-99.1607187775514,19.4418540445617,"heavy_rail",1970
100,"Revolución",-99.1541889431207,19.4391154700806,"heavy_rail",1970
101,"Nativitas",-99.1400599925141,19.3801992972116,"heavy_rail",1970
102,"Hidalgo",-99.147270307309,19.4374696058989,"heavy_rail",1970
103,"Hidalgo",-99.1470405535572,19.4367550747939,"heavy_rail",1970
104,"Bellas Artes",-99.1417378835171,19.4363330730272,"heavy_rail",1970
105,"Portales",-99.141618238769,19.369803555935,"heavy_rail",1970
106,"Bellas Artes",-99.1404400555961,19.4373683311226,"heavy_rail",1994
107,"Allende",-99.1368956916568,19.435539493427,"heavy_rail",1970
108,"Zócalo",-99.1323598596992,19.4330502524332,"heavy_rail",1970
109,"San Antonio Abad",-99.134564142805,19.4159869752409,"heavy_rail",1970
110,"Ermita",-99.142961656292,19.3619044011804,"heavy_rail",1970
111,"Ermita",-99.1433482707541,19.3600549783776,"heavy_rail",2012
112,"General Anaya",-99.1450635107819,19.3532220177726,"heavy_rail",1970
113,"Tasqueña",-99.1395297620275,19.3437513365913,"heavy_rail",1970
114,"Tasqueña",-99.1398769997619,19.3436833580331,"light_rail",1986
115,"Tlatelolco",-99.1431721339351,19.4550918372327,"heavy_rail",1970
116,"Eugenia",-99.1571616497674,19.3861857701122,"heavy_rail",1980
117,"Guerrero",-99.1451704068674,19.444799251727,"heavy_rail",1970
118,"Indios Verdes",-99.1198417039043,19.497006074088,"brt",2005
119,"Buenavista",-99.1527454463339,19.4462203177532,"heavy_rail",1999
120,"Indios Verdes",-99.1195025830593,19.4951066194379,"heavy_rail",1979
121,"Centro Médico",-99.1550411659192,19.4065643982534,"heavy_rail",1987
122,"División del Norte",-99.1595028322044,19.3789896955672,"heavy_rail",1980
123,"Deportivo 18 de Marzo",-99.12438418668,19.4863250507329,"brt",2005
124,"Deportivo 18 de Marzo",-99.1254092491352,19.4852299195026,"heavy_rail",1979
125,"Guerrero",-99.1463826656679,19.4451513535256,"heavy_rail",1999
126,"Euzkaro",-99.1274856121257,19.4824717791934,"brt",2005
127,"Canal de San Juan",-99.0594249384581,19.3987613356046,"heavy_rail",1991
128,"Potrero",-99.132062359385,19.4771205494647,"heavy_rail",1979
129,"Potrero",-99.1323452313851,19.4765715181273,"brt",2005
130,"Garibaldi",-99.1389603278317,19.4439301222116,"heavy_rail",1999
131,"La Raza",-99.1389386519606,19.4686317227476,"brt",2005
132,"Garibaldi",-99.1394403409315,19.443970805706,"heavy_rail",1994
133,"La Raza",-99.136553138918,19.4697381979458,"heavy_rail",1982
134,"La Raza",-99.1403736223466,19.4677138753167,"heavy_rail",1978
135,"Zapata",-99.1645238014542,19.3712094003284,"heavy_rail",1980
136,"Juárez",-99.1477336447081,19.4332832112607,"heavy_rail",1970
137,"Niños Héroes",-99.1504208185496,19.4191802199858,"heavy_rail",1970
138,"Hospital General",-99.1533631273162,19.4136853046339,"heavy_rail",1970
139,"Centro Médico",-99.1550831547912,19.4074811209658,"heavy_rail",1980
140,"Zapata",-99.1650483886298,19.3706794076574,"heavy_rail",2012
141,"Etiopía",-99.1559430570958,19.3965105656737,"brt",2011
142,"Etiopía",-99.1560404400647,19.3962204944972,"heavy_rail",1980
143,"Coyoacán",-99.170812644859,19.3614583350291,"heavy_rail",1983
144,"Tepalcates",-99.046329768698,19.391271926643,"heavy_rail",1991
145,"Viveros",-99.1756538071393,19.3537393065906,"heavy_rail",1983
146,"Miguel Ángel de Quevedo",-99.1808105998375,19.3461057400761,"heavy_rail",1983
147,"Copilco",-99.1771988256913,19.336200273628,"heavy_rail",1983
148,"Universidad",-99.1739110875134,19.3244101057388,"heavy_rail",1983
149,"Deportivo 18 de Marzo",-99.1255331374123,19.4835703041944,"heavy_rail",1986
150,"Centro Médico",-99.1551453741444,19.406834221167,"brt",2011
151,"Pantitlán",-99.0718647915391,19.4153318627697,"heavy_rail",1991
152,"Guerrero",-99.1474121964919,19.4454689069286,"brt",2011
153,"Agricola Oriental",-99.0695313542302,19.4046016425706,"heavy_rail",1991
154,"Tlatelolco",-99.1450371035676,19.4559215085441,"brt",2011
155,"Guelatao",-99.0356567400827,19.3851485180768,"heavy_rail",1991
156,"Peñón Viejo",-99.0170380600867,19.3733328716618,"heavy_rail",1991
157,"Doctores",-99.143182487388,19.4214988022345,"heavy_rail",1994
158,"Santa Marta",-98.9951841024836,19.3602791297215,"heavy_rail",1991
159,"Hospital 20 de Noviembre",-99.17101840241,19.3720045628369,"heavy_rail",2012
160,"La Paz",-98.9610129917324,19.3506617778139,"heavy_rail",1991
161,"Valentín Campa",-99.2000462346233,19.3820274707916,"heavy_rail",2018
162,"Mixcoac",-99.1876466752269,19.3759319272635,"heavy_rail",2012
163,"Eje Central",-99.1514750369944,19.3613174641288,"heavy_rail",2012
164,"Atlalilco",-99.1063349450053,19.3525620590088,"heavy_rail",2012
165,"San Andrés Tomatlán",-99.1048120934274,19.3281753384268,"heavy_rail",2012
166,"Calle 11",-99.0855378441762,19.320376475741,"heavy_rail",2012
167,"Nopalera",-99.045862906274,19.2999041273183,"heavy_rail",2012
168,"Tlaltenco",-99.0239161583328,19.2943959802833,"heavy_rail",2012
169,"Tezonco",-99.0659706667065,19.3065078071623,"heavy_rail",2012
170,"Martín Carrera",-99.1043549292768,19.4850541056954,"heavy_rail",1981
171,"Consulado",-99.1137617388979,19.4551361831907,"heavy_rail",1982
172,"Candelaria",-99.1194292760928,19.4287301490609,"heavy_rail",1981
173,"Jamaica",-99.1217300015281,19.4109545604179,"heavy_rail",1982
174,"Santa Anita",-99.1216769989189,19.4028877254107,"heavy_rail",1982
175,"La Viga",-99.1263356127448,19.4066344418466,"heavy_rail",1994
176,"Mixcoac",-99.1876455392622,19.3762129416118,"heavy_rail",1985
177,"Bondojito",-99.1118474295411,19.4649191557192,"heavy_rail",1981
178,"Aculco",-99.1077512048486,19.3734868366097,"heavy_rail",1994
179,"Los Reyes",-98.9768299077067,19.3590268753468,"heavy_rail",1991
180,"Alvaro Obregón",-99.1978157287364,19.3903269650505,"heavy_rail",2018
181,"Eduardo Molina",-99.1054019087056,19.4513783381846,"heavy_rail",1981
182,"UAM-I",-99.0749023963541,19.3510397497392,"heavy_rail",1994
183,"Parque de los Venados",-99.1586979232007,19.3706376088371,"heavy_rail",2012
184,"Mexicaltzingo",-99.1226658361906,19.3577091458127,"heavy_rail",2012
185,"Culhuacán",-99.108965612229,19.3369855038093,"heavy_rail",2012
186,"Escuadrón 201",-99.1095416153013,19.3648143743107,"heavy_rail",1994
187,"Periferico Oriente",-99.0744958779777,19.3175555116468,"heavy_rail",2012
188,"Atlalilco",-99.1012722421292,19.3560203034157,"heavy_rail",1994
189,"Olivos",-99.0595875703185,19.3042576023288,"heavy_rail",2012
190,"Zapotitlán",-99.0342560469471,19.2966373667164,"heavy_rail",2012
191,"Aragón",-99.0962552678384,19.4512304746731,"heavy_rail",1981
192,"Tláhuac",-99.0141981211013,19.2860850047941,"heavy_rail",2012
193,"Lomas Estrella",-99.0957371558288,19.3221293017093,"heavy_rail",2012
194,"Iztapalapa",-99.0933581784781,19.3577929015178,"heavy_rail",1994
195,"Martín Carrera",-99.1070257631375,19.4827715301794,"heavy_rail",1986
196,"Talismán",-99.1079878653886,19.4743589993294,"heavy_rail",1981
197,"Consulado",-99.1139581595524,19.4580227656082,"heavy_rail",1981
198,"Cerro de la Estrella",-99.0856010546647,19.3559129206998,"heavy_rail",1994
199,"Canal del Norte",-99.1161958092468,19.4488239720742,"heavy_rail",1981
200,"Morelos",-99.1181294621848,19.4396814409051,"heavy_rail",1981
201,"Fray Servando",-99.1205076253513,19.4216024578473,"heavy_rail",1982
202,"Insurgentes Sur",-99.1787239253208,19.3736989271789,"heavy_rail",2012
203,"Jamaica",-99.1222052654119,19.409115390855,"heavy_rail",1987
204,"Santa Anita",-99.1206753146747,19.404132053239,"heavy_rail",1994
205,"Oceanía",-99.0871467819002,19.4457039044291,"heavy_rail",1999
206,"San Juan de Letrán",-99.1413085662939,19.4313722607106,"heavy_rail",1994
207,"Constitución de 1917",-99.0637033771016,19.3459102226673,"heavy_rail",1994
208,"Obrera",-99.1440665744821,19.4129953367559,"heavy_rail",1994
209,"Coyuya",-99.1135245904752,19.3985839035526,"heavy_rail",1994
210,"Iztacalco",-99.1121027731783,19.38831704876,"heavy_rail",1994
211,"Mixiuhca",-99.1130088414029,19.4084050216628,"heavy_rail",1987
212,"Politécnico",-99.1492228435604,19.5007161330047,"heavy_rail",1982
213,"Oceanía",-99.0870402982883,19.4454399856183,"heavy_rail",1981
214,"Instituto del Petróleo",-99.1446662085764,19.4893114723247,"heavy_rail",1982
215,"Terminal Aerea",-99.088031112062,19.4338881145306,"heavy_rail",1981
216,"Instituto del Petróleo",-99.1467914680515,19.4907742644151,"heavy_rail",1983
217,"Autobuses del Norte",-99.1406454606913,19.4790887641902,"heavy_rail",1982
218,"Misterios",-99.1306154976261,19.4631900152768,"heavy_rail",1982
219,"Hangares",-99.0878608603447,19.4243691217778,"heavy_rail",1981
220,"Valle Gómez",-99.1195194410817,19.4587949889002,"heavy_rail",1982
221,"Lázaro Cárdenas",-99.1445966472567,19.4071435167392,"heavy_rail",1987
222,"Pantitlán",-99.0742733819352,19.4150687672733,"heavy_rail",1981
223,"Barranca del Muerto",-99.1892394590572,19.3615215732305,"heavy_rail",1985
224,"Pantitlán",-99.0721644552022,19.4154670904002,"heavy_rail",1987
225,"Puebla",-99.0823568085933,19.4071787174683,"heavy_rail",1987
226,"Chilpancingo",-99.1689219536841,19.4059193685803,"heavy_rail",1988
227,"Ciudad Deportiva",-99.091270080688,19.4084343291304,"heavy_rail",1987
228,"Velodromo",-99.1031415183562,19.4085392572113,"heavy_rail",1987
229,"San Joaquín",-99.1917721423708,19.4450292689433,"heavy_rail",1984
230,"Patriotismo",-99.1788202450954,19.4061480151773,"heavy_rail",1988
231,"San Antonio",-99.1865990874607,19.3850934727298,"heavy_rail",1985
232,"Tacubaya",-99.1879766473773,19.4009897784562,"heavy_rail",1988
233,"Tacubaya",-99.1867071955959,19.4022276216248,"heavy_rail",1984
234,"Auditorio",-99.1919019055539,19.4250166440377,"heavy_rail",1984
235,"San Pedro de los Pinos",-99.1858684354758,19.3914720392639,"heavy_rail",1985
236,"Constituyentes",-99.1915229364252,19.4119978454209,"heavy_rail",1984
237,"Polanco",-99.1908964740083,19.4336539144216,"heavy_rail",1984
238,"Refinería",-99.1903897597155,19.4696796092333,"heavy_rail",1988
239,"Camarones",-99.1900152176688,19.4790999675372,"heavy_rail",1988
240,"Aquiles Serdán",-99.1957240304983,19.4912087078915,"heavy_rail",1988
241,"El Rosario",-99.1997470497769,19.5046198798579,"heavy_rail",1988
242,"El Rosario",-99.2000951241675,19.5047151304159,"heavy_rail",1983
243,"Apatlaco",-99.1095744249961,19.3790936338285,"heavy_rail",1994
244,"Tezozómoc",-99.1961820965771,19.4949557269485,"heavy_rail",1983
245,"Azcapotzalco",-99.1865102309712,19.4910388586605,"heavy_rail",1983
246,"Fortuna",-99.1713014418134,19.4919594164453,"commuter_rail",2008
247,"Ferrería/Arena Ciudad de México",-99.1738154970043,19.4906563279424,"heavy_rail",1983
248,"Lindavista",-99.1347175196342,19.4878898335583,"heavy_rail",1986
249,"La Villa-Basílica",-99.1183644889993,19.4815729313294,"heavy_rail",1986
250,"Lagunilla",-99.1308296817461,19.4431989774682,"heavy_rail",1999
251,"Tepito",-99.123642012046,19.4427329533441,"heavy_rail",1999
252,"Morelos",-99.1196336629875,19.4392163320636,"heavy_rail",1999
253,"El Vergel",-99.1430552239255,19.3072296471047,"light_rail",1986
254,"San Lázaro",-99.1130077920339,19.4323550137496,"heavy_rail",1999
255,"Ricardo Flores Magón",-99.1036486627839,19.4365188152084,"heavy_rail",1999
256,"Romero Rubio",-99.09453460138,19.4407013806213,"heavy_rail",1999
257,"Estadio Azteca",-99.1470147133486,19.3018467385206,"light_rail",1986
258,"Deportivo Oceanía",-99.079271798094,19.4510016106221,"heavy_rail",1999
259,"Bosque de Aragón",-99.0692910878547,19.458103098149,"heavy_rail",1999
260,"Cuautitlán",-99.1762294309395,19.6669530183489,"commuter_rail",2008
261,"Villa de Aragón",-99.0613211835529,19.4616260565995,"heavy_rail",1999
262,"Huipulco",-99.1506812915043,19.2975706871041,"light_rail",1986
263,"Nezahualcóyotl",-99.0546404944242,19.4728546392504,"heavy_rail",2000
264,"Impulsora",-99.0489840318751,19.4856981143385,"heavy_rail",2000
265,"Río de los Remedios",-99.0467393546729,19.4907957225569,"heavy_rail",2000
266,"Xomali",-99.1467284366689,19.2887103379424,"light_rail",1986
267,"Múzquiz",-99.04205433958,19.501460206195,"heavy_rail",2000
268,"Ecatepec",-99.0360576571266,19.5150918384213,"heavy_rail",2000
269,"Olímpica",-99.0333184174264,19.5213210034153,"heavy_rail",2000
270,"Periférico",-99.1396611196744,19.2827453088167,"light_rail",1986
271,"Plaza Aragón",-99.0301742017643,19.5284700424149,"heavy_rail",2000
272,"Ciudad Azteca",-99.0275023271053,19.5345394207449,"heavy_rail",2000
273,"Las Torres",-99.1434391360953,19.340850634317,"light_rail",1986
274,"Tepepan",-99.1332272924976,19.2795565716093,"light_rail",1986
275,"Ciudad Jardín",-99.1418522747334,19.3357292397605,"light_rail",1986
276,"La Virgen",-99.1406126436044,19.3317131715314,"light_rail",1986
277,"Xotepingo",-99.1393020235979,19.3274871612282,"light_rail",1986
278,"La Noria",-99.1257139307248,19.2679822459468,"light_rail",1986
279,"Nezahualpilli",-99.138149674604,19.3237880020834,"light_rail",1986
280,"Registro Federal",-99.1387879577001,19.3179318389966,"light_rail",1986
281,"Textitlán",-99.1404062187929,19.3131091986884,"light_rail",1986
282,"Huichapan",-99.1186688680066,19.2644308740883,"light_rail",1986
283,"Francisco Goitia",-99.1112682295533,19.2607221474312,"light_rail",1986
284,"Xochimilco",-99.1080661336623,19.2594444549942,"light_rail",1986
285,"Buenavista",-99.1520506904616,19.4481984917704,"commuter_rail",2008
286,"Tlalnepantla",-99.1841213756083,19.5366350749723,"commuter_rail",2008
287,"San Rafael",-99.1955623420723,19.5649089389223,"commuter_rail",2008
288,"Lecheria",-99.1860654793729,19.5996424842247,"commuter_rail",2008
289,"Tultitlán",-99.1805410101007,19.6348410102016,"commuter_rail",2008
290,"Circuito",-99.1440057910497,19.4626072161463,"brt",2005
291,"San Simón",-99.146426329319,19.4596151902014,"brt",2005
292,"Manuel González",-99.1494003463452,19.4567174072864,"brt",2005
293,"Buenavista",-99.1532034523778,19.4468200094258,"brt",2005
294,"Reforma",-99.1587842004418,19.4328756986565,"brt",2005
295,"La Piedad",-99.1711307981016,19.3979418024209,"brt",2005
296,"Durango",-99.1640971681122,19.4198989843272,"brt",2005
297,"Chilpancingo",-99.1682922950951,19.406584826738,"brt",2005
298,"Sonora",-99.1661337217264,19.4133190716115,"brt",2005
299,"Felix Cuevas",-99.178808579612,19.3742622565339,"brt",2005
300,"Revolución",-99.1555087307106,19.4402985592362,"brt",2005
301,"Nápoles",-99.1737748848506,19.3896653051484,"brt",2005
302,"Ciudad de los Deportes",-99.1761614490828,19.3824565529785,"brt",2005
303,"Teatro de los Insurgentes",-99.1818438298479,19.364902069998,"brt",2005
304,"Francia",-99.1839386850715,19.3584453480035,"brt",2005
305,"Altavista",-99.1863943273437,19.350890979377,"brt",2005
306,"Obrero Mundial",-99.1555821432113,19.4010245158608,"brt",2011
307,"Dr. Márquez",-99.1548159904607,19.4111226452578,"brt",2011
308,"Jardín Pushkin",-99.1540928424919,19.4205091237389,"brt",2011
309,"Balderas",-99.1487675325392,19.4281101492769,"brt",2011
310,"Hidalgo",-99.1471762359797,19.4359963981733,"brt",2011
311,"Mina",-99.1486103079272,19.4405260012895,"brt",2011
312,"Plaza de la República",-99.1574234329,19.436030354029,"brt",2005
313,"Cuauhtémoc",-99.1537144367473,19.4250515875194,"brt",2011
314,"Álvaro Obregón",-99.1650722423038,19.4165476676218,"brt",2005
315,"Campeche",-99.1672276946176,19.4098270828963,"brt",2005
316,"Nuevo León",-99.169796009044,19.4020298587663,"brt",2005
317,"Hamburgo",-99.1612529382204,19.4274365717556,"brt",2005
318,"Colonia del Valle",-99.175118213583,19.3856418475151,"brt",2005
319,"Parque Hundido",-99.1770873907861,19.3795901747879,"brt",2005
320,"Poniente 146",-99.1559823987576,19.5000588876326,"brt",2011
321,"Río Churubusco",-99.1805719422289,19.3688227667578,"brt",2005
322,"Buenavista",-99.1459577828515,19.4518757989544,"brt",2011
323,"José María Velasco",-99.1828619933623,19.3617627556719,"brt",2005
324,"Olivo",-99.1851991704529,19.3545740541159,"brt",2005
325,"Cuitláhuac",-99.1462361551805,19.4744163919297,"brt",2011
326,"Bombilla",-99.187744914152,19.3467830170852,"brt",2005
327,"Hospital General",-99.1545338992588,19.4143860156137,"brt",2011
328,"Juárez",-99.1479975433635,19.4317367404037,"brt",2011
329,"Tolnahuac",-99.1441175381642,19.4599895058531,"brt",2011
330,"Circuito",-99.1442909173457,19.4631073255356,"brt",2011
331,"Hospital La Raza",-99.1440184495098,19.468154997423,"brt",2011
332,"Progreso Nacional",-99.1636281242306,19.5194603498688,"brt",2011
333,"La Raza",-99.1407881087477,19.4674592332044,"brt",2011
334,"Coltongo",-99.148382835466,19.479949442591,"brt",2011
335,"Héroe de Nacozari",-99.1451189001899,19.4714044165896,"brt",2011
336,"Magdalena La Salinas",-99.1499422730141,19.4839242040075,"brt",2011
337,"La Patera",-99.1573955588631,19.5036990485553,"brt",2011
338,"Poniente 128",-99.1522105399596,19.4896865850471,"brt",2011
339,"Poniente 134",-99.1532874687476,19.4928584484687,"brt",2011
340,"Montevideo",-99.1545132718357,19.4960493401494,"brt",2011
341,"San José de la Escalera",-99.1655032234296,19.5227398485006,"brt",2011
342,"Júpiter",-99.1592638773083,19.5084309326485,"brt",2011
343,"Tres Anegas",-99.1619463866786,19.515497589105,"brt",2011
344,"Poliforum",-99.1726209098198,19.3932775106503,"brt",2005
345,"Tenayuca",-99.1700941284836,19.5286740112869,"brt",2011
346,"Circunvalación",-99.1257771558187,19.4283318333186,"brt",2012
347,"República de Argentina",-99.1314949529461,19.4373865556023,"brt",2012
348,"Las Cruces Norte",-99.1292578857668,19.4286158232209,"brt",2012
349,"Mercado de Sonora",-99.1237000564445,19.4232056155853,"brt",2012
350,"Buenavista",-99.1524151466598,19.4448090554433,"brt",2012
351,"Delegación Cuauhtémoc",-99.1524525828306,19.4424662134651,"brt",2012
352,"Cecilio Robelo",-99.1198251697063,19.4255181121785,"brt",2012
353,"Puente de Alvarado",-99.1532753421088,19.4390750501917,"brt",2012
354,"Plaza de la República",-99.1540535456832,19.4370057036076,"brt",2012
355,"República de Chile",-99.1355735121545,19.4379114467248,"brt",2012
356,"Glorieta de Colón",-99.1534135816378,19.4344924106122,"brt",2012
357,"Hospital Balbuena",-99.114586045227,19.4249142306959,"brt",2012
358,"Expo Reforma",-99.1506269025789,19.4333083228039,"brt",2012
359,"Vocacional 5",-99.1506269025789,19.4316505855701,"brt",2012
360,"Juárez",-99.1480824143363,19.4312537307739,"brt",2012
361,"Eduardo Molina",-99.1156092138883,19.4271984205753,"brt",2012
362,"Plaza San Juan",-99.1435088892013,19.4305988845343,"brt",2012
363,"Eje Central",-99.1416835199812,19.4303437146859,"brt",2012
364,"El Salvador",-99.1398602732233,19.430104459307,"brt",2012
365,"Moctezuma",-99.1118130724107,19.4269826385576,"brt",2012
366,"Isabel La Católica",-99.1369129405264,19.4296666720336,"brt",2012
367,"Museo de la Ciudad",-99.132583933987,19.4290861940245,"brt",2012
368,"Teatro Blanquita",-99.1398105087442,19.4385552304941,"brt",2012
369,"Pino Suárez",-99.1323661199025,19.4264622823415,"brt",2012
370,"San Lázaro",-99.1152862112753,19.4308343771129,"brt",2012
371,"Las Cruces Sur",-99.1297766815333,19.426123116437,"brt",2012
372,"Archivo General de la Nación",-99.1147487994066,19.4353836754971,"brt",2012
373,"La Merced",-99.1256407681345,19.4254962055786,"brt",2012
374,"Bellas Artes",-99.141726619535,19.4364075904169,"brt",2012
375,"Terminal 2",-99.0771377128723,19.4215298854938,"brt",2012
376,"Terminal 1",-99.083805344996,19.4352962023889,"brt",2012
377,"Morelos",-99.1188783859277,19.4358254951868,"brt",2012
378,"Hidalgo",-99.1460175843174,19.4373102109954,"brt",2012
379,"Ferrocarril de Cintura",-99.1211582810861,19.436106156667,"brt",2012
380,"Mixcalco",-99.1239600165171,19.4363733894491,"brt",2012
381,"Teatro del Pueblo",-99.1272953851054,19.4368232309977,"brt",2012
382,"Museo San Carlos",-99.1506477475265,19.4382814268456,"brt",2012
383,"Río de los Remedios",-99.0860798603996,19.5067911538135,"brt",2013
384,"314. Memorial New's Divine",-99.0887121572469,19.5006857047908,"brt",2013
385,"Preparatoria 3",-99.0957707231772,19.4841038197543,"brt",2013
386,"Santa Coleta",-99.106787814415,19.4576621731067,"brt",2013
387,"Deportivo Eduardo Molina",-99.1120673702091,19.4448470044832,"brt",2013
388,"San Lázaro",-99.1151638148028,19.4322306683427,"brt",2013
389,"Talismán",-99.1012663934612,19.4709515924644,"brt",2013
390,"482",-99.0753345567991,19.4669545276605,"brt",2016
391,"El Coyol",-99.094224432222,19.4875214609355,"brt",2013
392,"Vasco de Quiroga",-99.0922573094059,19.4922028035368,"brt",2013
393,"San Juan de Aragón",-99.097373488011,19.4803872886558,"brt",2013
394,"Deportivo 18 de Marzo",-99.1228383969164,19.4867942030458,"brt",2016
395,"Río Guadalupe",-99.0990800031599,19.4760901548433,"brt",2013
396,"Victoria",-99.1028020440947,19.4673599715587,"brt",2013
397,"Oriente 101",-99.1050540882253,19.4620328425689,"brt",2013
398,"Río Consulado",-99.1084532753147,19.4536258214648,"brt",2013
399,"Canal del Norte",-99.110412886428,19.4494151418233,"brt",2013
400,"Mercado Morelos",-99.1134990737375,19.4410196280865,"brt",2013
401,"Archivo General",-99.1144317775119,19.4371105810983,"brt",2013
402,"414",-99.071649907881,19.4684758987204,"brt",2016
403,"La Villa",-99.1191417022881,19.4852779174596,"brt",2016
404,"El Rosario",-99.1999729827324,19.5068030764656,"brt",2016
405,"Colegio de Bachilleres 1",-99.1974774659062,19.5114659664647,"brt",2016
406,"De Las Culturas",-99.1929007202966,19.5108226746091,"brt",2016
407,"De los Misterios",-99.1179044235121,19.487171887923,"brt",2016
408,"Ferrocarriles Nacionales",-99.1895997030807,19.505080329605,"brt",2016
409,"UAM Azcapotzalco",-99.1836377211505,19.5040128907035,"brt",2016
410,"Tecnoparque",-99.1766392173328,19.5013513564393,"brt",2016
411,"Hospital Infantil La Villa",-99.1142235404531,19.4878645615458,"brt",2016
412,"Norte 59",-99.1649234947551,19.4974922092271,"brt",2016
413,"Norte 45",-99.1587843799303,19.4961653915983,"brt",2016
414,"416 Oriente",-99.0709256837381,19.4714107857246,"brt",2016
415,"Montevideo",-99.1537811489636,19.4950851029848,"brt",2016
416,"Delegación Gustavo A. Madero",-99.1130304747726,19.4840740715228,"brt",2016
417,"Lindavista-Vallejo",-99.1500466992093,19.4943063882511,"brt",2016
418,"Instituto del Petróleo",-99.1457743332503,19.4933763192529,"brt",2016
419,"San Bartolo",-99.1386554160631,19.491937141652,"brt",2016
420,"Martín Carrera",-99.105991924015,19.4823650276417,"brt",2016
421,"Instituto Politécnico Nacional",-99.1331216036401,19.4906388767715,"brt",2016
422,"Riobamba",-99.1289273765355,19.4890675634381,"brt",2016
423,"Hospital General La Villa",-99.1017954104991,19.4805196857278,"brt",2016
424,"Deportivo Los Galeana",-99.0778884003917,19.4785740832947,"brt",2016
425,"San Juan de Aragón",-99.0974474332659,19.4788144333089,"brt",2016
426,"Gran Canal",-99.0922403882152,19.4768602713437,"brt",2016
427,"Casas Alemán",-99.0885637441302,19.4747623535926,"brt",2016
428,"Ampliación Providencia",-99.0752315688699,19.4799248233605,"brt",2016
429,"Pueblo San Juan de Aragón",-99.0861616212085,19.4707524763017,"brt",2016
430,"Loreto Fabela",-99.0807519653905,19.4673934355617,"brt",2016
431,"416 Poniente",-99.0791970853656,19.4729680502734,"brt",2016
432,"Volcán de Fuego",-99.0721480120971,19.4767028533953,"brt",2016
433,"La Pradera",-99.0694485095436,19.4739263501162,"brt",2016
434,"Colegio de Bachilleres 9",-99.0647226887037,19.4694696253223,"brt",2016
435,"Francisco Morazán",-99.0618545785934,19.467120150012,"brt",2016
436,"Villa de Aragón",-99.0591322506791,19.4647180076954,"brt",2016
437,"Auditorio",-99.1928912754411,19.4259169749421,"brt",2017
438,"Museo de Antropología",-99.1850917904775,19.4247417303765,"brt",2017
439,"Fuente de Petróleos",-99.2020639177375,19.4277917423624,"brt",2017
440,"Campo Marte",-99.1994186475196,19.4268946255981,"brt",2017
441,"Gandhi",-99.180554748633,19.424057208922,"brt",2017
442,"Puerta de los Leones",-99.1741309539834,19.4239791093057,"brt",2017
443,"La Diana",-99.1709311430098,19.42548127782,"brt",2017
444,"El Ángel",-99.1677945636288,19.4274523563291,"brt",2017
445,"La Palma",-99.1650123218419,19.4282357472795,"brt",2017
446,"Reforma",-99.159626896143,19.4307905349031,"brt",2017
447,"Glorieta Colón",-99.1531773132305,19.4338293283292,"brt",2017
448,"Hidalgo",-99.147149155783,19.4370378547013,"brt",2017
449,"París",-99.1561423266297,19.4324342214743,"brt",2017
450,"El Caballito",-99.1497024937752,19.4356216024836,"brt",2017
451,"Valerio Trujano",-99.1413911296965,19.4422076254722,"brt",2017
452,"La Lagunilla",-99.1389993950559,19.4441949168903,"brt",2017
453,"Cuitláhuac",-99.1353490485714,19.4476881703113,"brt",2017
454,"U. H. Tlatelolco",-99.1341017763299,19.4490021469003,"brt",2017
455,"Peralvillo",-99.1310645998854,19.4529733017995,"brt",2017
456,"Juventino Rosas",-99.1292790568228,19.4572969012796,"brt",2017
457,"De los Misterios",-99.1275236197024,19.4618310502106,"brt",2017
458,"Clave",-99.1264555743756,19.4646568047009,"brt",2017
459,"Ing. Robles Domínguez",-99.1250309174098,19.4684238214218,"brt",2017
460,"Excélsior",-99.1236525754872,19.4720701336746,"brt",2017
461,"Necaxa",-99.1220657405788,19.4762757641449,"brt",2017
462,"Euzkaro",-99.1207690547381,19.4797541326955,"brt",2017
463,"Garrido",-99.119431716724,19.4833364561726,"brt",2017
464,"Delegación Gustavo A. Madero",-99.1140717397602,19.4832794250237,"brt",2017
465,"Hospital Infantil la Villa",-99.113577585061,19.4876765181015,"brt",2017
466,"Ahuehuete",-99.1179620929538,19.4870202213302,"brt",2017
467,"Indios Verdes",-99.122991222968,19.4962121845505,"brt",2017
