"nodeID","nodeLabel","longitud","latitud","mode","year"
1,"Sanayi",28.8737465379067,40.9805087937817,"heavy_rail",2009
2,"Seyrantepe",28.9640338862412,41.0203049603086,"heavy_rail",2011
3,"Hacıosman",28.8580961369484,41.0194967323255,"heavy_rail",2011
4,"Yenikapı",28.9107989279327,41.0163806884926,"heavy_rail",2014
5,"Vezneciler-İstanbul Üniversitesi",28.9292590690207,41.0332272034337,"heavy_rail",2014
6,"Haliç",28.9171430994199,41.0202009928238,"heavy_rail",2014
7,"Şişhane",29.246781561294,41.0135322192085,"heavy_rail",2009
8,"Taksim",29.2284072379399,41.026159740316,"heavy_rail",2000
9,"Osmanbey",29.22211542326,41.0159911523219,"heavy_rail",2000
10,"Şişli-Mecidiyeköy",29.2012745553139,41.0006902984394,"heavy_rail",2000
11,"Gayrettepe",29.0581509905968,40.9847073503115,"heavy_rail",2000
12,"Levent",29.0705987535833,40.9935260833365,"heavy_rail",2000
13,"4. Levent",28.97403464265,41.0283203562623,"heavy_rail",2000
14,"İTÜ-Ayazağa",29.0048484639207,41.0934420963023,"heavy_rail",2009
15,"Atatürk Oto Sanayi",29.0308016423682,41.1399795192098,"heavy_rail",2009
16,"Darüşşafaka",28.9976472195118,41.1008827340461,"heavy_rail",2010
17,"Emniyet-Fatih",28.9663156722977,41.0223263733945,"light_rail",1989
18,"Ulubatlı",28.9596540017031,41.0124882066756,"light_rail",1989
19,"Bayrampaşa",28.9852953461718,41.0373564300917,"light_rail",1989
20,"Sağmalcılar",28.9515302892335,41.0052507891711,"light_rail",1989
21,"Kocatepe",29.0109983247196,41.0690306105472,"light_rail",1989
22,"Otogar",28.9872228129918,41.0540119143332,"light_rail",1994
23,"Terazidere",29.0075072576747,41.0856754825994,"light_rail",1994
24,"Davutpaşa-YTÜ",29.0201520702867,41.1080521106339,"light_rail",1994
25,"Merter",29.0244083848109,41.1180574604009,"light_rail",1994
26,"Zeytinburnu",29.0248852300583,41.1298693746917,"light_rail",1994
27,"Bakırköy",28.8897670229699,41.00172199749,"light_rail",1994
28,"Ataköy",29.072202636272,41.0039566882571,"light_rail",1995
29,"Bahçelievler",29.0893945610528,41.0099521417636,"light_rail",1999
30,"Yenikapı",28.8980466532379,41.0302022183687,"light_rail",2014
31,"Esenler",28.9002830868955,41.0204889513259,"light_rail",2012
32,"Menderes",28.8961427096767,41.0075610640839,"light_rail",2014
33,"Üçyüzlü",28.8884566778227,41.0376060853749,"light_rail",2014
34,"Bağcılar Meydan",29.0145261922059,41.0759730897261,"light_rail",2014
35,"Kirazlı",28.9951483868953,41.0657465774807,"light_rail",2014
36,"Yenikapı",28.8745471086288,40.996583251741,"light_rail",2014
37,"Aksaray",28.8461669955454,40.9913448980036,"light_rail",1989
38,"Kirazlı",28.8638736130895,40.9955768913283,"heavy_rail",2014
39,"Yeni Mahalle",28.8285759059099,40.9866347116037,"heavy_rail",2013
40,"Mahmutbey",29.1223838990867,40.9930710930862,"heavy_rail",2013
41,"İstoç",28.8785846948968,41.0427544037357,"heavy_rail",2013
42,"Turgut Özal",28.8705455189274,41.0367149667673,"heavy_rail",2013
43,"Siteler",28.8566077923037,41.0346336224515,"heavy_rail",2013
44,"Başak Konutları",28.8169205885893,40.9799897324784,"heavy_rail",2013
45,"Başakşehir-Metrokent",29.3800153756265,40.7992586905322,"heavy_rail",2013
46,"Ziya Gökalp",28.8424353957502,41.0326735372294,"heavy_rail",2014
47,"Ziya Gökalp",28.8360139543177,41.0403277018164,"heavy_rail",2014
48,"İkitelli",28.8258001021749,41.0649550203416,"heavy_rail",2013
49,"Dünya Ticaret Merkezi",28.7974650443585,41.0805688235135,"light_rail",2002
50,"Atatürk Havalimanı",28.7960932781801,41.0887362711634,"light_rail",2002
51,"Yenibosna",28.791236638049,41.0976034422069,"light_rail",1995
52,"Olimpiyat",28.8034215773532,41.0716630673698,"heavy_rail",2014
53,"Olimpiyat",28.8306438244756,41.0538504628718,"heavy_rail",2014
54,"İkitelli",28.8481698962205,41.025415407727,"heavy_rail",2013
55,"Masko",28.8651274961687,41.0119925156259,"heavy_rail",2021
56,"Bahariye",28.8717969556719,41.0046056027752,"heavy_rail",2021
57,"Kadıköy",29.0968018204361,40.951745855806,"heavy_rail",2012
58,"Ayrılık Çeşmesi",29.0934651986106,40.9605261264649,"heavy_rail",2013
59,"Acıbadem",29.1116725088252,40.9787223832837,"heavy_rail",2012
60,"Ünalan",29.1558000471331,41.0001624295999,"heavy_rail",2012
61,"Göztepe",29.1880536577935,40.9953998151863,"heavy_rail",2012
62,"Yenisahra",29.3918077704083,40.7913657238309,"heavy_rail",2012
63,"Kozyatağı",29.4106466257122,40.7838923978437,"heavy_rail",2012
64,"Bostancı",29.1394542892434,41.0025888732161,"heavy_rail",2012
65,"Küçükyalı",29.0457201796241,41.0018649618183,"heavy_rail",2012
66,"Maltepe",29.0578570541217,40.9984698822596,"heavy_rail",2012
67,"Huzurevi",28.836576560885,41.0235374942839,"heavy_rail",2012
68,"Gülsuyu",28.8282395466668,41.0220998959345,"heavy_rail",2012
69,"Esenkent",28.8028214322194,41.028522067165,"heavy_rail",2012
70,"Hastane-Adliye",28.78958268755,41.0347839822209,"heavy_rail",2012
71,"Soğanlık",28.8011351244781,41.1075941355368,"heavy_rail",2012
72,"Kartal",28.7867773603591,41.0744533919965,"heavy_rail",2012
73,"Yakacık-Adnan Kahveci",29.0227062016538,40.9908054328442,"heavy_rail",2016
74,"Pendik",29.0902565225465,40.9849081468681,"heavy_rail",2016
75,"Tavşantepe",29.0299856609207,41.0002039701553,"heavy_rail",2016
76,"Topkapı",28.7987711930068,41.0581738832201,"light_rail",1992
77,"Pazartekke",28.8040443459113,41.0639754646176,"light_rail",1992
78,"Çapa-Şehremini",29.0997392604832,40.9750675519205,"light_rail",1992
79,"Fındıkzade",28.7672740040283,41.0795432955016,"light_rail",1992
80,"Haseki",29.1047294835653,40.9647480837904,"light_rail",1992
81,"Yusufpaşa",29.1222073060654,40.9491084427666,"light_rail",1992
82,"Laleli-Üniversite",29.1394262538957,40.9354024277901,"light_rail",1992
83,"Beyazıt-Kapalıçarşı",29.1461918027201,40.9299044019833,"light_rail",1992
84,"Çemberlitaş",29.1551265926925,40.9237187100747,"light_rail",1992
85,"Sultanahmet",29.1667036150086,40.9203716014497,"light_rail",1992
86,"Gülhane",28.9539144680861,41.0096005727716,"light_rail",1992
87,"Sirkeci",29.1792620788117,40.9161109367292,"light_rail",1992
88,"Zeytinburnu",29.1933752375993,40.911876201878,"light_rail",1994
89,"Mithatpaşa",29.2471653679482,40.8826012287807,"light_rail",1994
90,"Mithatpaşa",29.2387827478872,40.8881284111293,"light_rail",1994
91,"Akşemsettin",28.9802894645522,41.0267423780344,"light_rail",1994
92,"Merkezefendi",28.9194968683475,41.019238394114,"light_rail",1994
93,"Cevizlibağ-AÖY",28.927082025759,41.018270355114,"light_rail",1994
94,"Aksaray",28.9333736416275,41.0152255030432,"light_rail",1992
95,"Eminönü",28.9404605256972,41.0117928037544,"light_rail",1996
96,"Karaköy",28.9894567571844,41.0314453734282,"light_rail",2005
97,"Tophane",28.9431389457628,41.0109909669094,"light_rail",2005
98,"Fındıklı-MSGÜ",28.8607392765227,41.0333791494175,"light_rail",2005
99,"Bağcılar",28.9467580408514,41.0100611455503,"light_rail",2006
100,"Güneştepe",28.9596476829755,41.0095664165356,"light_rail",2006
101,"Yavuzselim",28.9667428851334,41.008963201634,"light_rail",2006
102,"Soğanlı",28.8608876239012,41.0291132538323,"light_rail",2006
103,"Akıncılar",28.971137981603,41.0084232533697,"light_rail",2006
104,"Güngören",28.9756243261881,41.0080696359106,"light_rail",2006
105,"Merter Tekstil Merkezi",28.9784191696778,41.0121267102134,"light_rail",2006
106,"Mehmet Akif",28.890098864319,41.0015075049654,"light_rail",2006
107,"Boğaziçi Ü.-Hisarüstü",28.8999045124011,41.0033827375624,"heavy_rail",2015
108,"Etiler",28.9025201380337,41.0035873628052,"heavy_rail",2015
109,"Nispetiye",28.9073702722511,41.0041513691833,"heavy_rail",2015
110,"Levent",28.9095145225642,41.0103139976667,"heavy_rail",2000
111,"Şişli-Mecidiyeköy",28.9759438005552,41.0151360098211,"heavy_rail",2000
112,"Çağlayan",28.9116064307222,41.0159621916931,"heavy_rail",2020
113,"Kağıthane",28.9733267365024,41.0174556608035,"heavy_rail",2020
114,"Nurtepe",28.9747815042937,41.0222501348082,"heavy_rail",2020
115,"Alibeyköy",28.8633238692708,41.0240862141751,"heavy_rail",2020
116,"Çırçır",28.8673950016877,41.020746324425,"heavy_rail",2020
117,"Veysel Karani-Akşemsettin",28.8714485698,41.017106018458,"heavy_rail",2020
118,"Yeşilpınar",28.8774745547963,41.0152431834591,"heavy_rail",2020
119,"Kazım Karabekir",28.8807553223729,41.0115432850293,"heavy_rail",2020
120,"Yenimahalle",29.0455345678166,41.0851429670529,"heavy_rail",2020
121,"Karadeniz Mahallesi",28.8816416637406,41.0058133456251,"heavy_rail",2020
122,"Tekstilkent-Giyimkent",29.0372447077974,41.0819238212849,"heavy_rail",2020
123,"Oruç Reis",29.0238308809306,41.0774737169099,"heavy_rail",2020
124,"Göztepe Mah.",28.9733548056867,41.079547665889,"heavy_rail",2020
125,"Mahmutbey",28.9629498548947,41.0796675755603,"heavy_rail",2013
126,"Üsküdar",28.9349846442394,41.0799481544255,"heavy_rail",2013
127,"Fıstıkağacı",28.949583080282,41.0791323856629,"heavy_rail",2017
128,"Bağlarbaşı",28.9800928896797,41.0710692383763,"heavy_rail",2017
129,"Kısıklı",28.9293426795664,41.0796219299719,"heavy_rail",2017
130,"Bulgurlu",28.9188015937423,41.0821386953777,"heavy_rail",2017
131,"Ümraniye",28.9098028718727,41.0847382607036,"heavy_rail",2017
132,"Çarşı",28.8928717956448,41.0837796998206,"heavy_rail",2017
133,"Yamanevler",28.8753014360861,41.0813355058895,"heavy_rail",2017
134,"Altunizade",28.8672204847984,41.0714104536991,"heavy_rail",2017
135,"Çakmak",28.8556148278261,41.0635057380461,"heavy_rail",2018
136,"Ihlamurkuyu",28.848709548555,41.0572683830252,"heavy_rail",2018
137,"Altınşehir",29.0286760152368,41.0282049350737,"heavy_rail",2018
138,"İmam Hatip Lisesi",29.0355283788143,41.0213981149535,"heavy_rail",2018
139,"Dudullu",29.062472239855,41.0222278497942,"heavy_rail",2018
140,"Necip Fazıl",29.0761150845564,41.0163131225045,"heavy_rail",2018
141,"Çekmeköy",29.0848810087201,41.0246919313326,"heavy_rail",2018
142,"Şehitlik",29.0133248995324,41.0256627081899,"tram",2007
143,"Demirkapı",29.2109649736665,40.9066073229254,"tram",2007
144,"Topçular",29.2284070480515,40.8945003397263,"tram",2007
145,"Rami",29.108721314218,41.02426474011,"tram",2007
146,"Uluyol-Bereç",28.8629432433055,41.0998637598774,"tram",2007
147,"Sağmalcılar",28.8604700298075,41.1064225337506,"tram",2007
148,"Bosna-Çukurçeşme",28.8577952392965,41.111907555563,"tram",2007
149,"Ali Fuat Başgil",28.8511694929178,41.1162568050851,"tram",2007
150,"Taşköprü",28.9341800924691,41.0311952545096,"tram",2007
151,"Karadeniz",28.9292339893977,41.0255330311707,"tram",2007
152,"Kiptaş-Venezia",28.9250995235914,41.021602215973,"tram",2007
153,"Cumhuriyet Mahallesi",28.9205943288321,41.0197383962964,"tram",2007
154,"50.Yıl-Baştabya",28.9439394501334,41.0868578111619,"tram",2007
155,"Hacı Şükrü",28.9494512654304,41.07845915892,"tram",2007
156,"Yenimahalle",28.9460450636231,41.0737439192916,"tram",2007
157,"Sultançiftliği",28.9428423742676,41.0698037423445,"tram",2007
158,"Cebeci",28.9429200642039,41.0647791088666,"tram",2007
159,"Mescid-i Selam",28.9410301988472,41.0566930608205,"tram",2007
160,"Edirnekapı",28.9351926063306,41.0504885633569,"tram",2009
161,"Vatan",28.9379728597818,41.0454968387482,"tram",2009
162,"Fetihkapı",28.9439613987046,41.0395568579731,"tram",2009
163,"Topkapı",28.9480369794383,41.034039818044,"tram",2009
164,"Alibeyköy Cep Otogarı",28.9547071055702,41.0285669010103,"light_rail",2021
165,"Alibeyköy Metro",28.960245657828,41.0242880064835,"light_rail",2021
166,"Alibeyköy",28.9700557774409,41.0182753608841,"light_rail",2020
167,"Karadeniz Mahallesi",29.0095316807139,41.053550697578,"tram",2020
168,"Alibeyköy Merkez",28.9740861601072,41.0228133278052,"light_rail",2021
169,"Üniversite",28.9740363631415,41.028272449877,"light_rail",2021
170,"Silahtarağa Mahallesi",28.9740231891037,41.0285023351157,"light_rail",2021
171,"Eyüpsultan Teleferik",28.9760820356949,41.0317179255091,"light_rail",2021
172,"Feshane",28.9775097208336,41.03358001884,"light_rail",2021
173,"Ayvansaray",28.9807547386892,41.0349208195586,"light_rail",2021
174,"Balat",28.9848144022568,41.036503011687,"light_rail",2021
175,"Fener",28.7739130773863,41.0061573115978,"light_rail",2021
176,"Cibali",28.7729282837707,40.9886024071421,"light_rail",2021
177,"Küçükpazar",28.7876156132354,40.972869671988,"light_rail",2023
178,"Eminönü",28.7969006943981,40.9678457441376,"light_rail",2023
179,"Kabataş",28.8249760701163,40.9626289938612,"light_rail",2006
180,"Kabataş",28.8371876446195,40.9653903376208,"light_rail",2006
181,"Taksim",28.881078877752,40.9817446991109,"light_rail",2000
182,"Karaköy",28.8563229883774,40.980185851068,"tram",1875
183,"Beyoğlu",28.9053913786158,40.9858111245765,"tram",1875
184,"Tünel",28.9168806507716,40.9926630638374,"tram",1990
185,"Odakule",29.0376168968164,40.9911053232461,"tram",1990
186,"Galatasaray",29.0490260665393,40.9787083060805,"tram",1990
187,"Hüseyin Ağa Cami",29.0764331297725,40.9714362458198,"tram",1990
188,"Taksim",29.0844786378683,40.9604668709306,"tram",1990
189,"Fulya",29.0945011629568,40.9540205808126,"heavy_rail",2023
190,"Yıldız",28.8285171867363,40.9866052543145,"heavy_rail",2023
191,"Beşiktaş",28.8198199954804,40.9820162318192,"heavy_rail",2026
192,"Halkalı",29.1069675855165,40.9462448422444,"commuter_rail",2019
193,"Mustafa Kemal",29.1142079041929,40.9378446873066,"commuter_rail",2019
194,"Küçükçekmece",29.1241572149394,40.926870290025,"commuter_rail",2019
195,"Florya",29.1335406621455,40.9207086221708,"commuter_rail",2019
196,"Florya Akvaryum",29.155633688469,40.910521316831,"commuter_rail",2019
197,"Yeşilköy",29.1692924252103,40.898713803982,"commuter_rail",2019
198,"Yeşilyurt",29.177454048385,40.890315724853,"commuter_rail",2019
199,"Ataköy",29.1911022242361,40.8886033227283,"commuter_rail",2019
200,"Bakırköy",29.2105093094507,40.8844872201181,"commuter_rail",2019
201,"Yenimahalle",29.2560672411362,40.8712734949397,"commuter_rail",2019
202,"Zeytinburnu",29.2732635872289,40.8609995006064,"commuter_rail",2019
203,"Kazlıçeşme",29.2834937176565,40.8568660874936,"commuter_rail",2013
204,"Yenikapı",29.2930507008174,40.8523919055617,"commuter_rail",2014
205,"Sirkeci",29.3223061692436,40.8299679545976,"commuter_rail",1992
206,"Üsküdar",29.347434414403,40.8105072468329,"commuter_rail",2013
207,"Ayrılık Çeşmesi",29.3639686642608,40.807571720297,"commuter_rail",2013
208,"Söğütlüçeşme",29.3000745401561,40.8456260990349,"commuter_rail",2019
209,"Feneryolu",29.163341169731,41.0152572663513,"commuter_rail",2019
210,"Göztepe",29.1183539945267,41.0215661005279,"commuter_rail",2019
211,"Erenköy",29.1305962186398,41.019715346708,"commuter_rail",2019
212,"Suadiye",29.1395919089968,41.0166045758452,"commuter_rail",2019
213,"Bostancı",29.1516966754082,41.0159361733623,"commuter_rail",2019
214,"Küçükyalı",29.1793753534839,41.0159285119313,"commuter_rail",2019
215,"İdealtepe",29.1892046048497,41.0145542051533,"commuter_rail",2019
216,"Süreyya Plajı",28.9283354376836,41.0341483926775,"commuter_rail",2019
217,"Maltepe",28.9233860752382,41.0369926696731,"commuter_rail",2019
218,"Cevizli",28.9197123951909,41.0414978241686,"commuter_rail",2019
219,"Atalar",28.9156575947005,41.0464518082398,"commuter_rail",2019
220,"Başak",28.9101968872357,41.0542492529582,"commuter_rail",2019
221,"Kartal",28.9068807368227,41.0573019547575,"commuter_rail",2019
222,"Yunus",28.9020601488457,41.0618812023172,"commuter_rail",2019
223,"Pendik",28.8955614599299,41.068501215976,"commuter_rail",2019
224,"Kaynarca",28.8876961573903,41.0726141537965,"commuter_rail",2019
225,"Tersane",28.882408988117,41.0752178936394,"commuter_rail",2019
226,"Güzelyalı",28.8747648316403,41.0811474847638,"commuter_rail",2019
227,"Aydıntepe",28.8669024704188,41.0878268601871,"commuter_rail",2019
228,"İçmeler",28.8640002446772,41.0927704928741,"commuter_rail",2019
229,"Tuzla",28.8719659628891,41.0841736921743,"commuter_rail",2019
230,"Çayırova",28.7904715270201,41.1133624043379,"commuter_rail",2019
231,"Gebze Teknik Üniversitesi-Fatih",28.7777241824961,41.1032824164433,"commuter_rail",2019
232,"Osmangazi",28.7679064823554,41.1075782933313,"commuter_rail",2019
233,"Darıca",28.8751035115929,40.997424125186,"commuter_rail",2019
234,"Gebze",28.8684146222115,40.9735542401358,"commuter_rail",2019
235,"Emin Ali Paşa",28.7704276741357,41.0331145548325,"heavy_rail",2023
236,"Bostancı",28.7129784608551,41.2555427399416,"heavy_rail",2023
237,"Küçükbakkalköy",29.2125340850596,41.0101645776192,"heavy_rail",2023
238,"İçerenköy",29.1987849582027,41.0096718885712,"heavy_rail",2023
239,"Kayışdağı",29.2166670510781,41.002627243515,"heavy_rail",2023
240,"Mevlana",28.7682990318182,41.0288669986033,"heavy_rail",2023
241,"İMES",28.9102417386261,41.1592395763323,"heavy_rail",2023
242,"MODOKO-KEYAP",29.2625600263976,40.889122545256,"heavy_rail",2023
243,"Huzur",28.7723479448322,41.0582596695669,"heavy_rail",2023
244,"Parseller",29.272362109395,40.9659287102756,"heavy_rail",2023
245,"Ayşe Kadın",29.2555651044477,40.968880075911,"heavy_rail",2023
246,"60.Yıl Parkı",29.2399943093341,40.9690444305856,"heavy_rail",2026
247,"Sahrayıcedit",28.8187244761216,41.0061230808969,"heavy_rail",2026
248,"Ataşehir",29.055039679122,41.0813865437335,"heavy_rail",2026
249,"Finans Merkezi",28.8226005716864,40.9994887540945,"heavy_rail",2026
250,"Site",28.8178820473416,41.0148785480079,"heavy_rail",2026
251,"Kozyatağı",28.8141665325742,41.0368536025201,"heavy_rail",2012
252,"Atakent",28.8062283893731,41.0453098547799,"heavy_rail",2026
253,"SBÜ Hastanesi",29.2733162093633,40.878668001263,"heavy_rail",2026
254,"Kazım Karabekir",29.2848290873375,40.8758753889096,"heavy_rail",2026
255,"Molla Gürani",29.295468668184,40.863917055482,"heavy_rail",2024
256,"Yıldıztepe",29.2928554692724,40.8578013744657,"heavy_rail",2025
257,"İlkyuva",28.7987424962204,41.0522499562436,"heavy_rail",2024
258,"Haznedar",28.8725461929533,40.997887020785,"heavy_rail",2024
259,"İncirli",28.8634788396129,40.9950827528639,"heavy_rail",2024
260,"Bakırköy Sahil",28.8457564783598,40.9917550296964,"heavy_rail",2024
261,"Onurkent",28.8347148054242,40.992357881797,"heavy_rail",2023
262,"Şehir Hastanesi",28.7987012529603,40.998703228515,"heavy_rail",2023
263,"Kayaşehir 15.Bölge",28.7950854101778,40.9948979833479,"heavy_rail",2023
264,"Kayaşehir",28.7886759050137,40.9867445526377,"heavy_rail",2023
265,"Kağıthane",28.7829701312765,40.9853587291244,"heavy_rail",2023
266,"Hasdal",28.7699659986912,40.9864595061989,"heavy_rail",2023
267,"Kemerburgaz",28.745299546466,40.9780586830659,"heavy_rail",2023
268,"Yenisahra",28.7324868142832,40.9797190976978,"heavy_rail",2012
269,"Göktürk",28.7258658954862,40.9836290400484,"heavy_rail",2023
270,"İhsaniye",28.8973008071511,41.0076181559011,"heavy_rail",2023
271,"Uydu Terminali",28.890695655627,41.003323206548,"heavy_rail",2023
272,"İstanbul Havalimanı",28.9215593351483,41.0240411670053,"heavy_rail",2023
273,"Kargo Terminali",28.9377366665701,41.0388547950745,"heavy_rail",2024
274,"Taşoluk",28.9467231534582,41.0491234677623,"heavy_rail",2024
275,"Arnavutköy",28.9615051525956,41.056698103101,"heavy_rail",2024
276,"Fenertepe",28.967424847285,41.061989222813,"heavy_rail",2025
277,"Ataköy",28.9760053888359,41.0674090110182,"heavy_rail",2019
278,"Tema Park",28.9809534762952,41.0673353411002,"heavy_rail",2025
279,"Halkalı",28.9918755181704,41.0668550847563,"heavy_rail",2019
280,"Malazgirt",29.0130776224824,41.0662037337813,"light_rail",2026
281,"Barbaros",29.0433976394648,41.0365554726752,"light_rail",2026
282,"Fatih",29.0468615974132,41.0319279520576,"light_rail",2026
283,"Halkalı-Üniversite",29.0571417373566,41.0146465011659,"light_rail",2026
284,"Yenidoğan",29.0566349765974,40.9989421966232,"light_rail",2026
285,"Bezirganbahçe",29.047383166921,40.9937313126536,"light_rail",2026
286,"Çobançeşme-Kuyumcukent",29.0377192910919,40.991728249837,"heavy_rail",2024
287,"29 Ekim Cumhuriyet",28.7136288242634,40.9907135594515,"heavy_rail",2024
288,"Doğu Sanayi",28.7059931808584,40.9950676927343,"heavy_rail",2024
289,"15 Temmuz",28.6935456016854,40.9997532650706,"heavy_rail",2024
290,"Halkalı Caddesi",28.685185703476,41.0042909875933,"heavy_rail",2024
291,"Atatürk Mah.",28.6732210810085,41.0059606981975,"heavy_rail",2024
292,"Aşiyan",28.6654857652811,41.0065004193926,"light_rail",2022
293,"Bölge Parkı",28.6568029288831,41.0096818418531,"heavy_rail",2026
294,"Toplu Konutlar",28.6492564702334,41.0125247890855,"heavy_rail",2026
295,"Tema Park",28.6412823758917,41.0155403608301,"heavy_rail",2026
296,"Meclis",28.6310822389624,41.0194358923858,"heavy_rail",2024
297,"Sarıgazi",28.6249284939787,41.022568302795,"heavy_rail",2024
298,"Sancaktepe Şehir Hastanesi",29.0480743225908,41.0222348404523,"heavy_rail",2024
299,"Sancaktepe",28.678780159544,41.0845439255102,"heavy_rail",2024
300,"Samandıra Merkez",28.9765051285362,41.0149981562718,"heavy_rail",2024
301,"Veysel Karani",28.7664483286974,41.0179824481968,"heavy_rail",2026
302,"Hasanpaşa",29.0863809676652,40.9674946814481,"heavy_rail",2026
303,"Sultanbeyli",29.0070836481879,41.0620911921168,"heavy_rail",2026
304,"Fevzi Çakmak",28.9482159429068,41.0118796848017,"heavy_rail",2022
305,"Yayalar-Şeyhli",28.938363283843,41.0182994807049,"heavy_rail",2022
306,"Kurtköy",29.1262097878011,40.9790040072978,"heavy_rail",2022
307,"Sabiha Gökçen Havalimanı",29.1377631909683,40.984745415474,"heavy_rail",2022
308,"Çamçeşme",29.1532777233062,40.9921858357865,"heavy_rail",2025
309,"Kavakpınar",29.1595196227675,41.0229024242388,"heavy_rail",2025
310,"Esenyalı",29.1526692498948,41.0312205081007,"heavy_rail",2025
311,"Aydıntepe",29.1619126862353,41.0072633342707,"heavy_rail",2025
312,"İçmeler",28.9761877928849,41.0802321846072,"heavy_rail",2019
313,"Bakırköy",28.9466609435359,41.1233208410612,"heavy_rail",2019
314,"Yenibosna",28.8835238424713,41.1770563106402,"heavy_rail",1995
315,"Mimar Sinan",28.8088658739863,41.2430035010879,"heavy_rail",2024
316,"Gayrettepe",28.7687279613813,41.256423178769,"heavy_rail",2000
317,"Mimar Sinan",28.7426650132863,41.2560352140656,"light_rail",2024
318,"Halkalı",28.8374737188772,40.9897930585947,"light_rail",2019
319,"Pendik",29.0987347403064,41.0427673922721,"heavy_rail",2019
320,"Kaynarca",28.7160990496662,41.2070663931719,"heavy_rail",2025
321,"Kaynarca",28.7475683702393,41.1797574775808,"heavy_rail",2025
322,"Çarşı",29.1116061973646,40.9994951098253,"heavy_rail",2017
323,"Atatürk Mah.",28.774468250746,41.056150927426,"heavy_rail",2024
324,"Dünya Ticaret Merkezi",28.7662612530949,41.1186248218282,"light_rail",2022
325,"Atatürk Havalimanı",28.795536538664,41.1397485906963,"light_rail",2022
326,"Topkapı- Şehit M. Canbaz",29.0074007779374,41.0431406669065,"brt",2007
327,"Cevizlibağ",28.9928220339617,41.034533072502,"brt",2007
328,"Merter",28.8166617841949,41.0250316049376,"brt",2007
329,"Zeytinburnu",28.779877245831,41.033901023423,"brt",2007
330,"Bakırköy-İncirli",29.2314866016333,40.8803175373621,"brt",2007
331,"Bahçelievler",29.2754552937997,40.9038396781565,"brt",2007
332,"Şirinevler",29.2967130423306,40.9101070649189,"brt",2007
333,"Yenibosna",29.3119426570366,40.9068695558476,"brt",2007
334,"Sefaköy",29.2609379881191,40.8787991709662,"brt",2007
335,"Beşyol",29.1020755394059,41.0305856200828,"brt",2007
336,"Florya",29.0969925471358,41.0259346819346,"brt",2007
337,"Cennet Mahallesi",29.1016133595382,41.015925700757,"brt",NA
338,"Küçükçekmece",29.1126951959147,41.0085542099472,"brt",2007
339,"İBB Sosyal Tesisler",29.1043143015756,40.9906277674008,"brt",2007
340,"Şükrübey",29.0771141730845,40.9799870949076,"brt",2007
341,"Avcılar",29.062633440205,40.9792105412784,"brt",2007
342,"Edirnekapı",29.05671979953,40.9696373104891,"brt",2008
343,"Bayrampaşa - Maltepe / Koç Üniversitesi Hastanesi",28.7897728297958,41.0556464714953,"brt",2008
344,"Ayvansaray Eyüpsultan",28.8155163835743,41.0579444408699,"brt",2008
345,"Halıcıoğlu",28.9293347518964,41.0245160160941,"brt",2008
346,"Okmeydanı",28.9202301331583,41.0341422385799,"brt",2008
347,"Darülaceze Perpa",28.9072574044777,41.0408528026086,"brt",2008
348,"Okmeydanı Hastane",28.8955897904818,41.0484500338012,"brt",2008
349,"Çağlayan",28.8945576906761,41.0401062981728,"brt",2008
350,"Mecidiyeköy",29.231386670376,40.9835905981011,"brt",2008
351,"Zincirlikuyu",29.2290174240438,40.9920887996027,"brt",2008
352,"15 Temmuz Şehitler Köprüsü",29.0791386647658,41.0344761627643,"brt",2009
353,"Burhaniye",29.0719943888049,41.0342174005598,"brt",2009
354,"Altunizade",29.0750807297854,41.0263021489252,"brt",2017
355,"Acıbadem",29.0850691160775,41.0392997591458,"brt",2009
356,"Uzunçayır",29.0764159027199,41.0458636722693,"brt",2009
357,"Fikirtepe",29.0738115453242,41.0563101269787,"brt",2009
