"nodeID","nodeLabel","longitud","latitud","mode","year"
1,"Zongguan",114.118055294409,30.6341436069759,"heavy_rail",2004
2,"Chongren Road",114.220984018142,30.582957240564,"heavy_rail",2004
3,"Liji North Road",114.256432736925,30.5764276348806,"heavy_rail",2004
4,"Youyi Road",114.264669094393,30.5798676446423,"heavy_rail",2004
5,"Xunlimen",114.273074510911,30.5834072377847,"heavy_rail",2004
6,"Dazhi Road",114.281638171244,30.588010932422,"heavy_rail",2004
7,"Sanyang Road",114.289537712316,30.5948696348317,"heavy_rail",2004
8,"Huangpu Road",114.296376793055,30.6018912639769,"heavy_rail",2004
9,"Erqi Road",114.302662277434,30.610782176891,"heavy_rail",2010
10,"Xuzhouxincun",114.336016680249,30.6768393691925,"heavy_rail",2010
11,"Danshuichi",114.323989106286,30.7143352345106,"heavy_rail",2010
12,"Xinrong",114.235307031931,30.5765420327091,"heavy_rail",2010
13,"Dijiao",114.244956608508,30.5740335172427,"heavy_rail",2010
14,"Tengzigang",114.336874300674,30.6867851734231,"heavy_rail",2014
15,"Hankou North",114.115169538301,30.6514506141594,"heavy_rail",2014
16,"Gutian 4th Road",114.308552889038,30.6202240360741,"heavy_rail",2010
17,"Gutian 3rd Road",114.313419516849,30.6274718144303,"heavy_rail",2010
18,"Duoluokou",114.317520487932,30.6335141334826,"heavy_rail",2010
19,"Wuhuan Boulevard",114.324583918501,30.6457692065878,"heavy_rail",2010
20,"Dongwu Boulevard",114.32905885597,30.6582191131067,"heavy_rail",2010
21,"Tengzigang",114.332761653201,30.6681678912312,"heavy_rail",2017
22,"Shekouxincheng",114.213288363716,30.5879970836854,"heavy_rail",2017
23,"Hankou North",114.20602920187,30.5918353691782,"heavy_rail",2017
24,"Taipingyang",114.19913154237,30.5959212404711,"heavy_rail",2006
25,"Gutian 2nd Road",114.177515438823,30.6069522796991,"heavy_rail",2010
26,"Gutian 1st Road",114.16395156197,30.6122579968287,"heavy_rail",2010
27,"Zhuyehai",114.158393141741,30.6172846682861,"heavy_rail",2014
28,"Etouwan",114.150420574824,30.6208927980181,"heavy_rail",2010
29,"Hanxi 1st Road",114.133170116899,30.6200462499101,"heavy_rail",2010
30,"Qiaokou Road",114.115223630955,30.6614504176728,"heavy_rail",2004
31,"Toudao Street",114.211882834363,30.7732533073495,"heavy_rail",2010
32,"Shekouxincheng",114.221766104669,30.7347295891398,"heavy_rail",2014
33,"Tianhe International Airport",114.231891535467,30.7254990940988,"heavy_rail",2016
34,"Hangkongzongbu",114.246637445009,30.7148709511623,"heavy_rail",2016
35,"Julong Boulevard",114.255539703161,30.7004811948419,"heavy_rail",2016
36,"Panlongcheng",114.271773926864,30.6738041505906,"heavy_rail",2016
37,"Changqingcheng",114.249748833696,30.6612102889541,"heavy_rail",2016
38,"Jinyintan",114.237083514231,30.6539172795744,"heavy_rail",2012
39,"Changqing Huayuan",114.239656674233,30.6436303552774,"heavy_rail",2012
40,"Changgang Road",114.2454805774,30.6318697327913,"heavy_rail",2012
41,"Hankou Railway Station",114.250473562133,30.6195775723607,"heavy_rail",2012
42,"Fanhu",114.254637541993,30.6090445294203,"heavy_rail",2012
43,"Wangjiadun East",114.257994792737,30.5987145946379,"heavy_rail",2012
44,"Qingnian Road",114.259467382063,30.587691008811,"heavy_rail",2012
45,"Zhongshan Park",114.267194556482,30.5844695020844,"heavy_rail",2012
46,"Xunlimen",114.281680239728,30.5868267549085,"heavy_rail",2012
47,"Jianghan Road",114.287306821288,30.5821584039519,"heavy_rail",2012
48,"Jiyuqiao",114.303176543053,30.5634964966614,"heavy_rail",2012
49,"Pangxiejia",114.311774525517,30.5560358567259,"heavy_rail",2012
50,"Xiaoguishan",114.321455164728,30.5571882304207,"heavy_rail",2012
51,"Hongshan Square",114.332743540325,30.5504049476886,"heavy_rail",2012
52,"Zhongnan Road",114.327862252744,30.5405295127327,"heavy_rail",2012
53,"Jiedaokou",114.336633714586,30.5324751627395,"heavy_rail",2012
54,"Guangbutun",114.346549588499,30.5293002671563,"heavy_rail",2012
55,"Huquan",114.363472473109,30.5161112049915,"heavy_rail",2012
56,"Yangjiawan",114.377010874467,30.5074993563673,"heavy_rail",2012
57,"Optics Valley Square",114.393515329342,30.5084075144446,"heavy_rail",2012
58,"Luoxiong Road",114.191167127152,30.600002648423,"heavy_rail",2019
59,"Huazhong Univ. of Sci. & Tech.",114.409576320013,30.5097159626729,"heavy_rail",2019
60,"Jiayuan Road",114.418180809403,30.5089232861025,"heavy_rail",2019
61,"Wuhandong Railway Station",114.425345493118,30.5024486110178,"heavy_rail",2019
62,"Huanglongshan Road",114.425935653218,30.4885438092867,"heavy_rail",2019
63,"Jinronggang North",114.424869439088,30.4801579408987,"heavy_rail",2019
64,"Canglong East Street",114.414880572755,30.4645259620165,"heavy_rail",2019
65,"Fozuling",114.415269464728,30.4500275454299,"heavy_rail",2019
66,"Wuhan Railway Station",114.424073259678,30.4394870887327,"heavy_rail",2013
67,"Yangchunhu",114.434197367072,30.4410862586681,"heavy_rail",2013
68,"Gongye 4th Road",114.418324072429,30.6094856400442,"heavy_rail",2013
69,"Renhe Road",114.410451307907,30.6076208710837,"heavy_rail",2013
70,"Yuanlin Road",114.400215610826,30.6102512947772,"heavy_rail",2013
71,"Luojiagang",114.383558012629,30.6073853972355,"heavy_rail",2013
72,"Tieji Road",114.372469184246,30.6024173207724,"heavy_rail",2013
73,"Yuejiazui",114.366010291279,30.5950256320036,"heavy_rail",2013
74,"Dongting",114.363532359252,30.5861610433991,"heavy_rail",2013
75,"Chuhe Hanjie",114.356841980471,30.5801213463829,"heavy_rail",2013
76,"Hongshan Square",114.344638726763,30.566455557402,"heavy_rail",2013
77,"Zhongnan Road",114.336004950883,30.5565454134953,"heavy_rail",2013
78,"Meiyuanxiaoqu",114.332831174588,30.5503295706323,"heavy_rail",2013
79,"Wuchang Railway Station",114.327726178458,30.5405711641911,"heavy_rail",2013
80,"Shouyi Road",114.32106964774,30.5332140641678,"heavy_rail",2014
81,"Fuxing Road",114.311056083246,30.5329725629829,"heavy_rail",2014
82,"Qilimiao",114.303583848966,30.5359623463797,"heavy_rail",2014
83,"Shilipu",114.295438524772,30.5367775343682,"heavy_rail",2014
84,"Wangjiawan",114.225984495158,30.5591099158945,"heavy_rail",2014
85,"Yulong Road",114.214067398387,30.5618160154996,"heavy_rail",2014
86,"Yong'antang",114.204454376532,30.5647821070617,"heavy_rail",2014
87,"Mengjiapu",114.195445061796,30.5670825611793,"heavy_rail",2014
88,"Huangjinkou",114.183032006573,30.5687145876694,"heavy_rail",2014
89,"Xintian",114.168388459084,30.5674889749922,"heavy_rail",2019
90,"Jixian",114.139647880044,30.5663801786048,"heavy_rail",2019
91,"Zhiyin",114.120906255516,30.5545322738881,"heavy_rail",2019
92,"Xinnong",114.106741221111,30.5524961439714,"heavy_rail",2019
93,"Fenghuang Road",114.084797299962,30.5594234522391,"heavy_rail",2019
94,"Caidian Square",114.068635099945,30.5629710317941,"heavy_rail",2019
95,"Xinmiaocun",114.054481002441,30.5656693671227,"heavy_rail",2019
96,"Bailin",114.035821177603,30.5753216053703,"heavy_rail",2019
97,"Linzhang Boulevard",114.272032980314,30.6739395404263,"heavy_rail",2019
98,"Lanjiang Road",114.290769573002,30.6633839876661,"heavy_rail",2014
99,"Zhongjiacun",114.299151781215,30.6541735738564,"heavy_rail",2014
100,"Hanyang Railway Station",114.299365499348,30.642356153382,"heavy_rail",2014
101,"Wulidun",114.302385073827,30.6329924238925,"heavy_rail",2014
102,"Dongting",114.299004713407,30.6265565539349,"heavy_rail",2013
103,"Hongtu Boulevard",114.285827785397,30.615375931189,"heavy_rail",2015
104,"Citizens Home",114.280678675036,30.6093625457212,"heavy_rail",2015
105,"Houhu Boulevard",114.270266830623,30.6065032046893,"heavy_rail",2015
106,"Xingye Road",114.255922848829,30.6101958125597,"heavy_rail",2015
107,"Erqi Branch Road",114.247461437462,30.6079723190362,"heavy_rail",2015
108,"Luojiazhuang",114.227450960271,30.5893788359433,"heavy_rail",2015
109,"Huiji 2nd Road",114.218829723006,30.5825219474899,"heavy_rail",2015
110,"Xianggang Road",114.204322701227,30.5633879961829,"heavy_rail",2015
111,"Lingjiaohu",114.20099306806,30.5553523278632,"heavy_rail",2015
112,"Fanhu",114.188931638919,30.5375505824772,"heavy_rail",2015
113,"Yunfei Road",114.183412171681,30.530360602374,"heavy_rail",2015
114,"Shuangdun",114.174166187564,30.519038159215,"heavy_rail",2015
115,"Zongguan",114.350097257352,30.5726834185519,"heavy_rail",2015
116,"Wangjiawan",114.264753444312,30.5446561143012,"heavy_rail",2015
117,"Longyangcun",114.260674293001,30.5521945987855,"heavy_rail",2015
118,"	Sixin Boulevard",114.247419106608,30.5541122386693,"heavy_rail",2015
119,"Hanyang Long-Distance Bus Sta.",114.236975145048,30.5559659477305,"heavy_rail",2015
120,"Sanjiaohu",114.022905670038,30.5741782588957,"heavy_rail",2015
121,"Sports Center",114.003766261317,30.5822882602661,"heavy_rail",2015
122,"	Dongfeng Motor Corp.",113.989159225451,30.5847407514898,"heavy_rail",2015
123,"Zhuanyang Boulevard",114.165623740461,30.5087321146912,"heavy_rail",2015
124,"Wuhan Business District",114.160659795274,30.50271723734,"heavy_rail",2015
125,"Taojialing",114.151600516615,30.4918393601691,"heavy_rail",2015
126,"Zhaojiatiao",114.195554496467,30.5470226592633,"heavy_rail",2015
127,"Dongfeng Motor Corp.",114.241421838162,30.5999163661648,"heavy_rail",2016
128,"Checheng East Road",114.291672524563,30.6202245545615,"heavy_rail",2016
129,"Jiangcheng Boulevard",114.420204578575,30.6347334583717,"heavy_rail",2016
130,"Laoguancun",114.428282430942,30.6134631001516,"heavy_rail",2016
131,"South International Expo Center",114.421218308647,30.6089432648109,"heavy_rail",2016
132,"North International Expo Center",114.395678866035,30.6413641986373,"heavy_rail",2016
133,"Qianjincun",114.431055075034,30.6217387408306,"heavy_rail",2016
134,"Zhongjiacun",114.414033283805,30.644812843142,"heavy_rail",2016
135,"Qintai",114.162723675692,30.5014487986819,"heavy_rail",2016
136,"Wusheng Road",114.17448360892,30.4979394209874,"heavy_rail",2016
137,"Hanzheng Street",114.198806621979,30.4977915266973,"heavy_rail",2016
138,"Liuduqiao",114.220127647465,30.4955979606098,"heavy_rail",2016
139,"Jianghan Road",114.230313880095,30.5085533982099,"heavy_rail",2016
140,"Dazhi Road",114.236894721597,30.5131865806328,"heavy_rail",2016
141,"Miaoli Road",114.24800205284,30.5227022319882,"heavy_rail",2016
142,"Xianggang Road",114.254312774693,30.5290394127448,"heavy_rail",2016
143,"Sanyanqiao",114.269894778745,30.6131097110061,"heavy_rail",2016
144,"Tangjiadun",114.26582278733,30.6203466115554,"heavy_rail",2016
145,"Shiqiao",114.261607335159,30.6312771456901,"heavy_rail",2016
146,"Yangchahu",114.256091748526,30.6376092515251,"heavy_rail",2016
147,"Changqinghuayuan",114.238406085128,30.6434033013767,"heavy_rail",2016
148,"Polytechnic Univ.",114.229079173441,30.6421657778865,"heavy_rail",2016
149,"Garden Expo North",114.217567305893,30.6403900017811,"heavy_rail",2016
150,"Jinyinhu",114.1995240244,30.6417264249141,"heavy_rail",2016
151,"Jinyinhu Park",114.174829230097,30.6391181639548,"heavy_rail",2016
152,"Jiangang",114.159199905655,30.6365037059027,"heavy_rail",2016
153,"Maying Road",114.148925541626,30.6358236248482,"heavy_rail",2016
154,"Haikou 3rd Road",114.132212258744,30.6368487832437,"heavy_rail",2021
155,"Erya Road",114.11862862397,30.635213671345,"heavy_rail",2021
156,"Fifth Ring Sports Center",114.101803335617,30.6352691915724,"heavy_rail",2021
157,"Matoutan Park",114.319898190112,30.5836353731433,"heavy_rail",2021
158,"Xincheng 12th Road",114.303320384543,30.5633989652682,"heavy_rail",2021
159,"Wuhan Railway Station",114.327776845729,30.5927021768844,"heavy_rail",2021
160,"Wangqing Road",114.337068996672,30.6017439869011,"heavy_rail",2021
161,"City Industrial Park",114.359657977436,30.6198951079256,"heavy_rail",2021
162,"Heping Park",114.371014499443,30.6272228718456,"heavy_rail",2021
163,"Jianshe 2nd Road",114.38252494194,30.6346289489695,"heavy_rail",2021
164,"Science Park",114.263322538021,30.4559570950795,"heavy_rail",2021
165,"Yangyuan",114.287973103854,30.4710437308219,"heavy_rail",2021
166,"Xujiapeng",114.287729415404,30.480884916477,"heavy_rail",2021
167,"Sanjiao Road",114.293078268725,30.5115099732261,"heavy_rail",2021
168,"Jiyuqiao",114.295250965172,30.5226386416796,"heavy_rail",2021
169,"South 3rd Ring Road",114.295991385257,30.5356368325427,"heavy_rail",2021
170,"Baisha 5th Road",114.295830844309,30.5440090439869,"heavy_rail",2021
171,"Qingling",114.287605885865,30.4935086336701,"heavy_rail",2021
172,"Jiangmin Road",114.296846209656,30.5493349893316,"heavy_rail",2021
173,"Wujindi Road",114.30953709544,30.5725142094145,"heavy_rail",2021
174,"Fuxing Road",114.346163646582,30.6099066186505,"heavy_rail",2021
175,"Pengliuyang Road",114.31442919616,30.462580169638,"heavy_rail",2021
176,"Jiangguo Road",114.30811654145,30.4764527299013,"heavy_rail",2021
177,"Tanhualin",114.308084819042,30.4864351958739,"heavy_rail",2021
178,"Xinsheng Road",114.308492795015,30.505970877959,"heavy_rail",2021
179,"Qinglongshan Ditiexiaozhen",114.30882299967,30.5153273428943,"heavy_rail",2018
180,"Zhifang Avenue",114.310929392972,30.5340671968212,"heavy_rail",2018
181,"Beihua Street",114.313081475016,30.4439989382535,"heavy_rail",2018
182,"Tanxinpei Park",114.314393571232,30.4143274402532,"heavy_rail",2018
183,"Jiangxiaketing",114.316107348908,30.3924811464052,"heavy_rail",2018
184,"Dahualing",114.316334140152,30.373272741373,"heavy_rail",2018
185,"Xinlucun",114.31803636645,30.3606372157846,"heavy_rail",2018
186,"Yezhihu",114.31914777849,30.3471227229043,"heavy_rail",2018
187,"Banqiao",114.328950696587,30.32146,"heavy_rail",2018
188,"Hubei Univ. of Technology",114.313116371018,30.5476658086363,"heavy_rail",2018
189,"Jian'an Street",114.311935406241,30.5547984012497,"heavy_rail",2018
190,"Ruian Street",114.311619104127,30.5651812078085,"heavy_rail",2018
191,"Wuchang Railway Sta.",114.323426428758,30.5796778293639,"heavy_rail",2018
192,"Xiaodongmen",114.325850975623,30.5914282102724,"heavy_rail",2018
193,"Pangxiejia",114.294817822586,30.6017286015901,"heavy_rail",2018
194,"Xinhe Street",114.279813465407,30.6080904802938,"heavy_rail",2018
195,"Hubei Univ.",114.269563083359,30.6001333925126,"heavy_rail",2018
196,"Xujiapeng",114.256254133733,30.596947922858,"heavy_rail",2018
197,"Sanyang Road",114.239878309574,30.5986096471126,"heavy_rail",2018
198,"Xianggang Road",114.229187401328,30.6072667291553,"heavy_rail",2018
199,"Qushuilou",114.220312062171,30.6218050151921,"heavy_rail",2018
200,"Wangjiadun East",114.218081903929,30.6383528095093,"heavy_rail",2018
201,"Wuhan Business District",114.219953705108,30.6613854781548,"heavy_rail",2018
202,"Garden Expo North",114.231896555078,30.7017193908706,"heavy_rail",2018
203,"Machi",114.248899680858,30.7122607480212,"heavy_rail",2022
204,"Tangyunhai",114.331005237292,30.5940274564246,"heavy_rail",2022
205,"Julong Boulevard",114.302944681059,30.6103394119811,"heavy_rail",2022
206,"Jintan Road",114.291877356416,30.6190877814334,"heavy_rail",2017
207,"Hongtu Boulevard",114.282479563525,30.6273070172021,"heavy_rail",2017
208,"Tazihu",114.275709910471,30.6422995703152,"heavy_rail",2017
209,"Zhongyi Road",114.275157162599,30.6549441560641,"heavy_rail",2017
210,"Zhuyeshan",114.275167804861,30.6722593471961,"heavy_rail",2017
211,"Zhaojiatiao",114.278393926804,30.6785984133309,"heavy_rail",2017
212,"Huangpu Road",114.356447904194,30.5791153487195,"heavy_rail",2018
213,"Xujiapeng",114.346285637962,30.5860221495327,"heavy_rail",2017
214,"Xudong",114.34101073335,30.5900641771152,"heavy_rail",2017
215,"Xujiapeng",114.360176707864,30.5677146825386,"heavy_rail",2017
216,"Yuejiazui",114.34942812779,30.5589413913362,"heavy_rail",2017
217,"Hubei Provincial Museum & Hubei Daily",114.341432693074,30.5548298732463,"heavy_rail",2021
218,"Zhongnan Hospital",114.338251394274,30.5481403614397,"heavy_rail",2021
219,"Shuiguohu",114.345697662384,30.5387076863493,"heavy_rail",2021
220,"Xiaohongshan",114.347550733735,30.5285532866568,"heavy_rail",2021
221,"Jiedaokou",114.344801884953,30.5181450894899,"heavy_rail",2021
222,"Mafangshan",114.339083214043,30.5031892118053,"heavy_rail",2021
223,"Wenzhi Street",114.324886890877,30.4943863338266,"heavy_rail",2021
224,"Wenchang Road",114.320491988288,30.4839966178637,"heavy_rail",2021
225,"Hubei Academy of Agricultural Sciences",114.319121372316,30.4724284762711,"heavy_rail",2021
226,"Mahu",114.313628274763,30.4637917581185,"heavy_rail",2021
227,"Yezhihu",114.293509041054,30.4576602249823,"heavy_rail",2019
228,"Huangjiahu Ditiexiaozhen",114.292714955887,30.4392988116151,"heavy_rail",2019
229,"Military Athletes' Village",114.366270681372,30.576721005808,"heavy_rail",2019
230,"Honggangcheng",114.426134131121,30.489128683584,"heavy_rail",2021
231,"Yujiatou",114.441477457262,30.4906176729311,"heavy_rail",2021
232,"Wugang",114.460591501012,30.4877700491844,"heavy_rail",2021
233,"Jianshe 11th Road",114.475376668786,30.4900106029064,"heavy_rail",2021
234,"Changmatou",114.48641542661,30.4915065557451,"heavy_rail",2018
235,"Garden Expo",114.497683652165,30.4875461251862,"heavy_rail",2018
236,"Xiuhu",114.507147287619,30.4875274286212,"heavy_rail",2019
237,"Gediannan Railway Station",114.517527206903,30.491372196205,"default",2021
238,"Zuoling",114.528808381396,30.4908917247745,"default",2018
239,"Weilai 3rd Road",114.55783418133,30.4902157972504,"default",2018
240,"Weilai 1st Road",114.58015491445,30.4871190966751,"default",2018
241,"Changlingshan",114.600761927606,30.4889626123359,"default",2018
242,"Guanggu 7th Road",114.615516148395,30.4908533685695,"default",2018
243,"Baoxie",114.654579918419,30.4917044091696,"default",2018
244,"Guanggu 6th Road",114.409450472813,30.4993231968321,"default",2018
245,"Guanggu 5th Road",114.393835290596,30.507932998008,"default",2018
246,"Guanggu 4th Road",114.377423561085,30.5185664610874,"default",2018
247,"Guanggushengwuyuan",114.362179212188,30.5157018864154,"default",2018
248,"Tongji Hospital",114.345544219826,30.5180839775244,"default",2018
249,"Hukou",114.327165376222,30.5235647619174,"default",2018
250,"Wuhandong Railway Station",114.31667861054,30.53160757347,"default",2018
251,"Guanshan Boulevard",114.295873680126,30.5327902888786,"default",2022
252,"Optics Valley Square",114.286650863499,30.5201618744748,"default",2022
253,"Sports University",114.300577280172,30.6532073744709,"default",2022
254,"Huquan",114.310166098191,30.6568454809356,"default",2022
255,"Mafangshan",114.327078920523,30.6597763144726,"default",2022
256,"Dingziqiao",114.338543254207,30.6745376070878,"default",2022
257,"Wuchang Railway Station",114.359458518997,30.6826201237036,"default",2022
258,"Fuxing Road",114.367631749713,30.6863199003045,"default",2022
259,"Jiang'an Road",114.384876051818,30.7076878959867,"default",2022
260,"Houhu Boulevard",114.403423823781,30.7158101431523,"default",2017
261,"Baibutinghuayuan Road",114.424235790973,30.7093039448808,"default",2017
262,"Xinrong Long-Distance Bus Station",114.472320097078,30.7116667717886,"default",2017
263,"Xingfuwan",114.56256040936,30.7042029704041,"default",2017
264,"Zhujiahe",114.613928239572,30.7164687044987,"default",2017
265,"Shenjiaji",114.358166078051,30.5252049404621,"default",2017
266,"Qinglong",114.261400106008,30.5403802474464,"default",2017
267,"Jintai",114.26080638151,30.5521050141493,"default",2017
268,"Yangluo Development Zone",114.260563518541,30.5599357405698,"default",2017
269,"Wuhu",114.262822960381,30.5718261326195,"default",2017
270,"Shakou",114.2691484871,30.5737232837681,"default",2017
271,"Junmincun",114.278930416359,30.5775492701856,"default",2017
272,"Wuhan Bioengineering Institute",114.285603701344,30.5822484386474,"default",2017
273,"Shigang",114.50978598497,30.7126103308235,"default",2021
274,"Gaoche",114.520464254957,30.7110484598969,"default",2017
275,"Yangluo",114.547898534966,30.7062544976304,"default",2017
276,"Liyuan",114.595767036167,30.7089104592707,"heavy_rail",2017
277,"Chelun Square",114.288493145557,30.5953042172267,"tram",2017
278,"Shuifu Street",114.283968685097,30.6021729044738,"tram",2017
279,"Checheng Avenue",114.278086877178,30.6082851586021,"tram",2017
280,"Binhu Community",114.122916722105,30.6272040178078,"tram",2017
281,"Fengshu Second Road",114.150721549466,30.4922590324871,"tram",2017
282,"Fengshu Fourth Road",114.143120701278,30.4969434255887,"tram",2017
283,"Fengshu Fifth Road",114.138768976079,30.4919319959569,"tram",2017
284,"Fengshu Sixth Road",114.139383675642,30.4845872279389,"tram",2017
285,"Gree Electric",114.134119025836,30.4804650171063,"tram",2017
286,"Dongfeng Avenue",114.129531538743,30.478193933642,"tram",2017
287,"Zhushanhu Avenue",114.122389191351,30.4748086763229,"tram",2017
288,"Zhushanhu North",114.112366292824,30.4701972047711,"tram",2017
289,"Zhushanhu South",114.10323682408,30.4658621036212,"tram",2017
290,"Zhushan",114.096408132783,30.4633089468618,"tram",2017
291,"Fenghuangyuan",114.084450909766,30.4614343948424,"tram",2017
292,"Deshenggang",114.078589124945,30.4596898326982,"tram",2017
293,"Tangxunhu City Railway Station",114.079293382701,30.4557331174162,"light_rail",2018
294,"Sanyuan Road",114.081101557369,30.4510429054877,"light_rail",2018
295,"	Wuhan University Science Park",114.084555093284,30.4441851484394,"light_rail",2018
296,"Vanke City Garden",114.085411518172,30.4370198997339,"light_rail",2018
297,"HUST Science Park",114.082535686951,30.4315322431537,"light_rail",2018
