"nodeID","nodeLabel","longitud","latitud","mode","year"
1,"Yio Chu Kang",103.79380125233,1.42730688336913,"heavy_rail",1987
2,"Ang Mo Kio",103.788029315506,1.43617353021222,"heavy_rail",1987
3,"Bishan",103.807000501446,1.32603252576876,"heavy_rail",1987
4,"Braddell",103.832995861161,1.41731660743541,"heavy_rail",1987
5,"Toa Payoh",103.851531270886,1.28436785422905,"heavy_rail",1987
6,"Somerset",103.852638722728,1.29306260703649,"heavy_rail",1987
7,"Orchard",103.862750906825,1.27170882021568,"heavy_rail",1987
8,"Newton",103.726088596924,1.35805059163042,"heavy_rail",1987
9,"Novena",103.751822415627,1.3589143813742,"heavy_rail",1987
10,"City Hall",103.749581622248,1.34904166394922,"heavy_rail",1987
11,"Dhoby Ghaut",103.854604075095,1.2756760172857,"heavy_rail",1987
12,"Raffles Place",103.747428908776,1.39755353650445,"heavy_rail",1987
13,"Yishun",103.762011524209,1.42520942613106,"heavy_rail",1989
14,"Khatib",103.774088106608,1.43255168738506,"heavy_rail",1989
15,"Marina Bay",103.786510339305,1.43697981373135,"heavy_rail",1990
16,"Marina South Pier",103.800970690672,1.44063037525126,"heavy_rail",2014
17,"Yew Tee",103.820020473707,1.44906395896406,"heavy_rail",1996
18,"Kranji",103.851461767539,1.28436969132609,"heavy_rail",1996
19,"Marsiling",103.778586524396,1.31139906291456,"heavy_rail",1996
20,"Woodlands",103.852722118686,1.29309965735428,"heavy_rail",1996
21,"Admiralty",103.882888693377,1.31644321461603,"heavy_rail",1996
22,"Sembawang",103.871351940183,1.31147350437483,"heavy_rail",1996
23,"Canberra",103.862874781063,1.30747251078853,"heavy_rail",2020
24,"Outram Park",103.855824365026,1.30060903857657,"heavy_rail",1987
25,"Tanjong Pagar",103.94653253982,1.32719951865214,"heavy_rail",1987
26,"Raffles Place",103.892946844829,1.31812444087353,"heavy_rail",1987
27,"City Hall",103.988578819918,1.35729868935894,"heavy_rail",1989
28,"Tiong Bahru",103.961641653352,1.3347105050012,"heavy_rail",1988
29,"Redhill",103.94927631722,1.3730764663091,"heavy_rail",1988
30,"Queenstown",103.94518693775,1.35324630523468,"heavy_rail",1988
31,"Commonwealth",103.678180114771,1.32772129190582,"heavy_rail",1988
32,"Buona Vista",103.697391798501,1.33757948039185,"heavy_rail",1988
33,"Dover",103.660652396474,1.31957238604184,"heavy_rail",2001
34,"Clementi",103.648954879136,1.32113180296777,"heavy_rail",1988
35,"Bugis",103.63958871515,1.33003793570312,"heavy_rail",1990
36,"Lavender",103.636596296557,1.3397351509274,"heavy_rail",1990
37,"Kallang",103.846110905251,1.29893787678456,"heavy_rail",1990
38,"Aljunied",103.850583305134,1.29687089091073,"heavy_rail",1990
39,"Paya Lebar",103.855756379016,1.2933763697478,"heavy_rail",1990
40,"Eunos",103.863582084033,1.29967816826818,"heavy_rail",1990
41,"Kembangan",103.875420905251,1.30286727721351,"heavy_rail",1990
42,"Bedok",103.882522442182,1.30622940035771,"heavy_rail",1990
43,"Tanah Merah",103.888655493545,1.30840119935452,"heavy_rail",1990
44,"Jurong East",103.861106352003,1.29264804823345,"heavy_rail",1988
45,"Chinese Garden",103.892177873668,1.31745356723591,"heavy_rail",1988
46,"Lakeside",103.890291810482,1.32650181536681,"heavy_rail",1988
47,"Pasir Ris",103.888316379016,1.33543696924053,"heavy_rail",1990
48,"Tampines",103.879733121204,1.34285936971455,"heavy_rail",1990
49,"Bukit Gombak",103.787115368071,1.29936692295456,"heavy_rail",1990
50,"Simei",103.790479481461,1.30646379295219,"heavy_rail",1990
51,"Expo",103.796196158951,1.31240387054423,"heavy_rail",2001
52,"Changi Airport",103.807546944826,1.31741101213796,"heavy_rail",2002
53,"Boon Lay",103.815008760841,1.32196655445535,"heavy_rail",1990
54,"Pioneer",103.839703219109,1.33752503749501,"heavy_rail",2009
55,"Joo Koon",103.839381155107,1.34903732675032,"heavy_rail",2009
56,"Gul Circle",103.848517330713,1.35143232357473,"heavy_rail",2017
57,"Tuas Crescent",103.864136012633,1.35161202660789,"heavy_rail",2017
58,"Tuas West Road",103.784515433157,1.29372,"heavy_rail",2017
59,"Tuas Link",103.781752370741,1.28268315016477,"heavy_rail",2017
60,"Dhoby Ghaut",103.802777429207,1.2723179245208,"heavy_rail",2010
61,"Bras Basah",103.809806351596,1.27063047493731,"heavy_rail",2010
62,"Esplanade",103.822175242515,1.26529902303423,"heavy_rail",2010
63,"Promenade",103.859099124891,1.28179705137725,"heavy_rail",2010
64,"Nicoll Highway",103.855154490984,1.27576826889971,"heavy_rail",2010
65,"Stadium",103.791553315472,1.27618534550725,"heavy_rail",2010
66,"Mountbatten",103.872256028453,1.35074998975623,"heavy_rail",2010
67,"Dakota",103.89538104037,1.3915734260224,"heavy_rail",2010
68,"Paya Lebar",103.893023431274,1.38242688480825,"heavy_rail",2010
69,"MacPherson",103.892570466118,1.37138822365259,"heavy_rail",2010
70,"Tai Seng",103.88500852423,1.36011145383203,"heavy_rail",2010
71,"Bartley",103.873569781984,1.34955358036959,"heavy_rail",2009
72,"Serangoon",103.870708147098,1.33896731121747,"heavy_rail",2009
73,"Lorong Chuan",103.869064876187,1.33124636600419,"heavy_rail",2009
74,"Bishan",103.845309143595,1.29999235301581,"heavy_rail",2009
75,"Marymount",103.849740590667,1.30737069719503,"heavy_rail",2009
76,"Caldecott",103.854208419936,1.31257701741505,"heavy_rail",2011
77,"Botanic Gardens",103.861723016573,1.31990069075074,"heavy_rail",2011
78,"Farrer Road",103.846612893854,1.28873272710955,"heavy_rail",2011
79,"Holland Village",103.843395383454,1.28419407163466,"heavy_rail",2011
80,"Buona Vista",103.83963877077,1.27975193746387,"heavy_rail",2011
81,"one-north",103.822810814853,1.26539484226072,"heavy_rail",2011
82,"Kent Ridge",103.744532520745,1.38474501528653,"heavy_rail",2011
83,"Haw Par Villa",103.745290830946,1.38026885426412,"heavy_rail",2011
84,"Pasir Panjang",103.749033259124,1.37859866151057,"heavy_rail",2011
85,"Labrador Park",103.753642632294,1.37666323915889,"heavy_rail",2011
86,"Telok Blangah",103.758010502525,1.37861496387595,"heavy_rail",2011
87,"HarbourFront",103.763071253708,1.37789831755242,"heavy_rail",2011
88,"Marina Bay",103.766633309884,1.37776834263092,"heavy_rail",2012
89,"Bayfront",103.771258204944,1.37617057992999,"heavy_rail",2012
90,"Punggol",103.772639235795,1.38006464096004,"heavy_rail",2003
91,"Sengkang",103.770800892345,1.38454153307008,"heavy_rail",2003
92,"Buangkok",103.769588099009,1.38778643607858,"heavy_rail",2006
93,"Hougang",103.764509471681,1.38667195731206,"heavy_rail",2003
94,"Kovan",103.762375109556,1.3826757096169,"heavy_rail",2003
95,"Serangoon",103.760520432576,1.3800638512646,"heavy_rail",2003
96,"Woodleigh",103.76052216138,1.3800467787116,"heavy_rail",2011
97,"Potong Pasir",103.900513481071,1.39447459701991,"heavy_rail",2003
98,"Boon Keng",103.90597099037,1.3914652469651,"heavy_rail",2003
99,"Farrer Park",103.905449316793,1.38807742037166,"heavy_rail",2003
100,"Little India",103.902200537213,1.3839257459683,"heavy_rail",2003
101,"Dhoby Ghaut",103.897423003055,1.38396459328521,"heavy_rail",2003
102,"Clarke Quay",103.895413933958,1.3917237826054,"heavy_rail",2003
103,"Chinatown",103.893805160212,1.39626734034681,"heavy_rail",2003
104,"Outram Park",103.889235181726,1.39718970493458,"heavy_rail",2003
105,"HarbourFront",103.881223523572,1.39819937817099,"heavy_rail",2003
106,"Choa Chu Kang",103.875633970279,1.39735491270622,"light_rail",1999
107,"South View",103.8762370711,1.39196974443769,"light_rail",1999
108,"Keat Hong",103.880143192336,1.39212649260781,"light_rail",1999
109,"Teck Whye",103.885782940997,1.38942554109737,"light_rail",1999
110,"Phoenix",103.890508431252,1.38673574327747,"light_rail",1999
111,"Bukit Panjang",103.905857466258,1.39946663249047,"light_rail",1999
112,"Petir",103.908874068966,1.3969863111745,"light_rail",1999
113,"Pending",103.912632296729,1.39389449737141,"light_rail",1999
114,"Bangkit",103.916110886629,1.39455144755048,"light_rail",1999
115,"Fajar",103.916442997592,1.39961248458655,"light_rail",1999
116,"Segar",103.912680257698,1.40232433220078,"light_rail",1999
117,"Jelapang",103.908557244564,1.40528275763899,"light_rail",1999
118,"Senja",103.904901554748,1.40972613634291,"light_rail",1999
119,"Ten Mile Junction",103.90664271068,1.41277693859961,"light_rail",1999
120,"Ten Mile Junction",103.906638335693,1.41688364659281,"light_rail",2011
121,"Sengkang",103.902157915943,1.41594736220731,"light_rail",2003
122,"Compassvale",103.900360265447,1.41189002305985,"light_rail",2003
123,"Rumbia",103.897270294709,1.40540655252957,"light_rail",2003
124,"Bakau",103.902392809029,1.40525575104679,"light_rail",2003
125,"Kangkar",103.898585863479,1.40848403778581,"light_rail",2003
126,"Ranggung",103.988952639137,1.36200984322821,"light_rail",2003
127,"Cheng Lim",103.991811774765,1.36100173529627,"light_rail",2013
128,"Farmway",103.987359067011,1.35842832482881,"light_rail",2007
129,"Kupang",103.990020419121,1.35709764939106,"light_rail",2015
130,"Thanggam",103.822546936129,1.26509274864686,"light_rail",2003
131,"Fernvale",103.820972454268,1.25553777809003,"light_rail",2003
132,"Layar",103.81777509143,1.2512176610422,"light_rail",2003
133,"Tongkang",103.819460111349,1.25389871357858,"light_rail",2003
134,"Renjong",103.988635335816,1.35337899774135,"light_rail",2003
135,"Punggol",103.985468381492,1.35390178923195,"light_rail",2005
136,"Cove",103.983811824305,1.35015428620984,"light_rail",2005
137,"Meridian",103.861020524138,1.2926420920832,"light_rail",2005
138,"Coral Edge",103.85904525219,1.28182407690302,"light_rail",2005
139,"Riviera",103.852805336821,1.27945423825904,"light_rail",2005
140,"Kadaloor",103.856831560055,1.29959825831448,"light_rail",2005
141,"Oasis",103.848487096275,1.28225415204808,"light_rail",2007
142,"Damai",103.843895204986,1.2849258429266,"light_rail",2011
143,"Sam Kee",103.852611392908,1.30398662441642,"light_rail",2016
144,"Teck Lee",103.849153133324,1.30670073851966,"light_rail",9999
145,"Punggol Point",103.838156101295,1.31367500354682,"light_rail",2016
146,"Samudera",103.815989314092,1.32256196108571,"light_rail",2017
147,"Nibong",103.825991484236,1.32002823828134,"light_rail",2014
148,"Sumang",103.762052743898,1.37856131928752,"light_rail",2014
149,"Soo Teck",103.797214936611,1.33069132007383,"light_rail",2014
150,"C",103.783569129698,1.33601975837147,"people_mover",2007
151,"D",103.775997157086,1.34131788837503,"people_mover",1990
152,"B",103.767122092504,1.36264841002167,"people_mover",2007
153,"E",103.764614600639,1.36955030334852,"people_mover",1990
154,"A",103.844369361374,1.29234865505892,"people_mover",2007
155,"F",103.849807261501,1.29827682445864,"people_mover",2007
156,"A South",103.855429920572,1.30551532562019,"people_mover",2007
157,"VivoCity",103.871846542597,1.3215294363232,"people_mover",2007
158,"Resorts World",103.882928864515,1.32693691481251,"people_mover",2010
159,"Imbiah",103.889476327575,1.32622423806149,"people_mover",2007
160,"Beach",103.908179582632,1.33487779018363,"people_mover",2007
161,"Bugis",103.918114941426,1.33458991184085,"heavy_rail",2013
162,"Promenade",103.938486086183,1.34551686297271,"heavy_rail",2013
163,"Bayfront",103.942973049952,1.35512460210128,"heavy_rail",2013
164,"Downtown",103.954861333789,1.35612899049276,"heavy_rail",2013
165,"Telok Ayer",103.961400183248,1.34169725478164,"heavy_rail",2013
166,"Chinatown",103.962250219793,1.33539398204843,"heavy_rail",2013
167,"Rochor",103.965165397521,1.32955301589979,"heavy_rail",2015
168,"Little India",103.862798268948,1.31364020715303,"heavy_rail",2015
169,"Newton",103.931842836178,1.33667257594783,"heavy_rail",2015
170,"Stevens",103.899279987964,1.32999142091094,"heavy_rail",2015
171,"Botanic Gardens",103.840177413819,1.33733019808743,"heavy_rail",2015
172,"Tan Kah Kee",103.785762224124,1.44834760884887,"heavy_rail",2015
173,"Sixth Avenue",103.868027466079,1.2792270804572,"heavy_rail",2015
174,"King Albert Park",103.824062825257,1.30251254859345,"heavy_rail",2015
175,"Beauty World",103.825540520284,1.31950548951905,"heavy_rail",2015
176,"Hume",103.941465951411,1.31310929498122,"heavy_rail",2025
177,"Hillview",103.930062120521,1.30992309569063,"heavy_rail",2015
178,"Cashew",103.916189759786,1.3070318364805,"heavy_rail",2015
179,"Bukit Panjang",103.869018474105,1.29108645506865,"heavy_rail",2015
180,"Fort Canning",103.769672239716,1.44470327846322,"heavy_rail",2017
181,"Bencoolen",103.764639764082,1.46312261531509,"heavy_rail",2017
182,"Jalan Besar",103.949905637831,1.31708225655103,"heavy_rail",2017
183,"Bendemeer",103.837170004516,1.27292365777222,"heavy_rail",2017
184,"Geylang Bahru",103.781148460182,1.33424231492336,"heavy_rail",2017
185,"Mattar",103.769845016802,1.44485604512738,"heavy_rail",2017
186,"MacPherson",103.832688756588,1.35460483976006,"heavy_rail",2017
187,"Ubi",103.83344229587,1.36374280821679,"heavy_rail",2017
188,"Kaki Bukit",103.818054506067,1.39818438645756,"heavy_rail",2017
189,"Bedok North",103.906849074782,1.30381432500926,"heavy_rail",2017
190,"Bedok Reservoir",103.897323430947,1.29921747816296,"heavy_rail",2017
191,"Tampines West",103.886290011817,1.29785487185245,"heavy_rail",2017
192,"Tampines",103.87351283289,1.29712806777302,"heavy_rail",2017
193,"Tampines East",103.956937653497,1.32042700026552,"heavy_rail",2017
194,"Upper Changi",103.863235866762,1.27410020627824,"heavy_rail",2017
195,"Expo",103.855565817331,1.27451038940102,"heavy_rail",2017
196,"Xilin",103.843914367923,1.28055961557955,"heavy_rail",2025
197,"Sungei Bedok",103.839166857751,1.28167711395429,"heavy_rail",2025
198,"Woodlands North",103.84804989683,1.27349611127013,"heavy_rail",2020
199,"Woodlands",103.830522250572,1.27035940393782,"heavy_rail",2020
200,"Woodlands South",103.836259424599,1.27292193525624,"heavy_rail",2020
201,"Springleaf",103.956904924408,1.32049849418272,"heavy_rail",2021
202,"Lentor",103.836621280721,1.38486815468455,"heavy_rail",2021
203,"Mayflower",103.836885693376,1.37245084304429,"heavy_rail",2021
204,"Bright Hill",103.850544841771,1.27766413953936,"heavy_rail",2021
205,"Upper Thomson",103.833593803425,1.28804084113032,"heavy_rail",2021
206,"Caldecott",103.833578984565,1.29460360201039,"heavy_rail",2021
207,"Mount Pleasant",103.831370433816,1.30289744226208,"heavy_rail",2027
208,"Stevens",103.818855920258,1.30682222844793,"heavy_rail",2023
209,"Napier",103.835153429996,1.32857700150974,"heavy_rail",2023
210,"Orchard Boulevard",103.829588434877,1.44324514668136,"heavy_rail",2023
211,"Orchard",103.768901738001,1.35486548564271,"heavy_rail",2023
212,"Great World",103.910017558846,1.415152289386,"heavy_rail",2023
213,"Havelock",103.902356905892,1.40521383774557,"heavy_rail",2023
214,"Outram Park",103.74406676411,1.38514587015351,"heavy_rail",2023
215,"Maxwell",103.739980595222,1.37920175355062,"heavy_rail",2023
216,"Shenton Way",103.729723305359,1.3655010338417,"heavy_rail",2023
217,"Marina Bay",103.71384385094,1.35299302488734,"heavy_rail",2023
218,"Marina South",103.708244821687,1.34916524601837,"heavy_rail",2027
219,"Gardens by the Bay",103.844937897474,1.38178152774266,"heavy_rail",2023
220,"Keppel",103.849511671241,1.37006815263885,"heavy_rail",2026
221,"Cantonment",103.848231274209,1.35128831615469,"heavy_rail",2026
222,"Prince Edward Road",103.846772616336,1.34059980121798,"heavy_rail",2026
223,"Tanjong Rhu",103.847588779449,1.3323669244895,"heavy_rail",2024
224,"Founders' Memorial",103.843511502221,1.32006915338717,"heavy_rail",2027
225,"Katong Park",103.838384590457,1.31265782877331,"heavy_rail",2024
226,"Tanjong Katong",103.832186415353,1.30320805760002,"heavy_rail",2024
227,"Marine Parade",103.838526735214,1.30027847990904,"heavy_rail",2024
228,"Marine Terrace",103.846050673446,1.29874772751074,"heavy_rail",2024
229,"Siglap",103.826827671769,1.28619799630367,"heavy_rail",2024
230,"Bayshore",103.816745436511,1.28965218259491,"heavy_rail",2024
231,"Bedok South",103.806004438816,1.29468670487024,"heavy_rail",2025
232,"Punggol Coast",103.798266148868,1.30247865162873,"heavy_rail",2024
233,"Woodlands Train Checkpoint",103.790102435175,1.30727486389222,"inter_city_rail",1998
234,"Johor Bahru Sentral",103.765218959919,1.31511656366191,"inter_city_rail",2010
235,"Tanjong Pagar",103.742203976911,1.33306645754104,"inter_city_rail",1932
236,"Bukit Timah",103.732556076654,1.34239742044544,"inter_city_rail",1932
237,"Woodlands",103.720694212672,1.34424567367225,"inter_city_rail",1932
238,"Sungei Bedok",103.744313452514,1.38544836631591,"heavy_rail",2025
239,"Choa Chu Kang",103.742292107263,1.33312150619551,"heavy_rail",1990
240,"Choa Chu Kang",103.902906153415,1.31979085718254,"heavy_rail",1990
241,"Bukit Gombak",103.91294480651,1.32102736455981,"heavy_rail",1990
242,"Bukit Batok",103.930162629159,1.3240281436433,"heavy_rail",1990
243,"Bukit Batok",103.95336883893,1.34319773933755,"heavy_rail",1990
244,"Jurong East",103.835041301454,1.42937545855961,"heavy_rail",1990
245,"Jurong East",103.702693103479,1.34598642677279,"heavy_rail",1990
246,"Choa Chu Kang",103.708606018032,1.33275856582516,"heavy_rail",2027
247,"Choa Chu Kang West",103.709283096536,1.32528008344038,"heavy_rail",2027
248,"Tengah",103.710155664754,1.31876441475079,"heavy_rail",2027
249,"Hong Kah",103.710424831905,1.31259436784961,"heavy_rail",2027
250,"Corporation",103.698050628996,1.34835406042403,"heavy_rail",2027
251,"Jurong West",103.692378030977,1.35030470893358,"heavy_rail",2027
252,"Bahar Junction",103.68054029676,1.34827887633385,"heavy_rail",2027
253,"Boon Lay",103.678623391246,1.34303864280125,"heavy_rail",2027
254,"Enterprise",103.686637065539,1.35378218624246,"heavy_rail",2029
255,"Tukang",103.704530834722,1.33823294781494,"heavy_rail",2029
256,"Jurong Hill",103.733446094807,1.35734059911319,"heavy_rail",2029
257,"Jurong Pier",103.73684753542,1.35213153034583,"heavy_rail",2029
258,"Gek Poh",103.739506377618,1.34564944012378,"heavy_rail",2027
259,"Tawas",103.742385136001,1.33975851341307,"heavy_rail",2027
260,"Nanyang Crescent",103.74197676803,1.33288917509978,"heavy_rail",2029
261,"Peng Kang Hill",103.745158278653,1.32659859730417,"heavy_rail",2029
262,"Tengah Plantation",103.744905350072,1.32066281683781,"heavy_rail",2028
263,"Tengah Park",103.70573252178,1.33851998092696,"heavy_rail",2028
264,"Bukit Batok West",103.839041348664,1.28147986256042,"heavy_rail",2028
265,"Toh Guan",103.845738508323,1.27652199906075,"heavy_rail",2028
266,"Jurong East",103.972010791837,1.37113089082122,"heavy_rail",2028
267,"Jurong Town Hall",103.96061669332,1.36704771088097,"heavy_rail",2028
268,"Pandan Reservoir",103.949300742443,1.37060070152947,"heavy_rail",2028
269,"Aviation Park",103.898943747939,1.3621823987299,"heavy_rail",2030
270,"Loyang",103.891039098433,1.37121801728256,"heavy_rail",2030
271,"Pasir Ris East",103.873430932143,1.37069882721706,"heavy_rail",2030
272,"Pasir Ris",103.86347828084,1.37021230183817,"heavy_rail",2032
273,"Tampines North",103.851312400258,1.36940378113901,"heavy_rail",2030
274,"Defu",103.843830123697,1.36597193776225,"heavy_rail",2030
275,"Hougang",103.836031250772,1.36331704355358,"heavy_rail",2030
276,"Serangoon North",104.003552722239,1.37016390272677,"heavy_rail",2030
277,"Tavistock",103.938122166657,1.36885837768689,"heavy_rail",2030
278,"Ang Mo Kio",103.938088412189,1.38410078991605,"heavy_rail",2030
279,"Teck Ghee",103.915439614097,1.39633542442402,"heavy_rail",2030
280,"Bright Hill",103.901536509826,1.40568671425937,"heavy_rail",2030
281,"Nanyang Gateway",103.794280776677,1.34113527285241,"heavy_rail",2029
282,"Elias",103.782617868365,1.335136644542,"heavy_rail",2032
283,"Riviera",103.776685175851,1.32813870722333,"heavy_rail",2032
284,"Punggol",103.765541203718,1.31646180836479,"heavy_rail",2032
285,"Turf City",103.757732604553,1.31069892247056,"heavy_rail",NA
286,"King Albert Park",103.73887721398,1.32763536960016,"heavy_rail",2032
